$GPRMC,133137.9,V,4729.22130,N,01904.75728,E,,,170424,004.1,E,N*18
$GPGGA,133137.9,4729.22130,N,01904.75728,E,0,00,,,M,,M,,*47
$GPVTG,,T,,M,,N,,K,N*2C
$GPRMC,133138.0,V,4729.22130,N,01904.75728,E,,,170424,004.1,E,N*1E
$GPGGA,133138.0,4729.22130,N,01904.75728,E,0,00,,,M,,M,,*41
$GPVTG,,T,,M,,N,,K,N*2C
$GPGSA,A,1,,,,,,,,,,,,,,,*1E
$GPGSV,1,1,04,49,32,205,00,84,40,063,17,07,05,328,00,08,27,302,00*7A
$GPRMC,133138.1,V,4729.22130,N,01904.75728,E,,,170424,004.1,E,N*1F
$GPGGA,133138.1,4729.22130,N,01904.75728,E,0,00,,,M,,M,,*40
$GPVTG,,T,,M,,N,,K,N*2C
$GPRMC,133138.2,V,4729.22130,N,01904.75728,E,,,170424,004.1,E,N*1C
$GPGGA,133138.2,4729.22130,N,01904.75728,E,0,00,,,M,,M,,*43
$GPVTG,,T,,M,,N,,K,N*2C
$GPRMC,133138.3,V,4729.22130,N,01904.75728,E,,,170424,004.1,E,N*1D
$GPGGA,133138.3,4729.22130,N,01904.75728,E,0,00,,,M,,M,,*42
$GPVTG,,T,,M,,N,,K,N*2C
$GPRMC,133138.4,V,4729.22130,N,01904.75728,E,,,170424,004.1,E,N*1A
$GPGGA,133138.4,4729.22130,N,01904.75728,E,0,00,,,M,,M,,*45
$GPVTG,,T,,M,,N,,K,N*2C
$GPRMC,133138.5,V,4729.22130,N,01904.75728,E,,,170424,004.1,E,N*1B
$GPGGA,133138.5,4729.22130,N,01904.75728,E,0,00,,,M,,M,,*44
$GPVTG,,T,,M,,N,,K,N*2C
$GPRMC,133138.6,V,4729.22130,N,01904.75728,E,,,170424,004.1,E,N*18
$GPGGA,133138.6,4729.22130,N,01904.75728,E,0,00,,,M,,M,,*47
$GPVTG,,T,,M,,N,,K,N*2C
$GPRMC,133138.7,V,4729.22130,N,01904.75728,E,,,170424,004.1,E,N*19
$GPGGA,133138.7,4729.22130,N,01904.75728,E,0,00,,,M,,M,,*46
$GPVTG,,T,,M,,N,,K,N*2C
$GPRMC,133138.8,V,4729.22130,N,01904.75728,E,,,170424,004.1,E,N*16
$GPGGA,133138.8,4729.22130,N,01904.75728,E,0,00,,,M,,M,,*49
$GPVTG,,T,,M,,N,,K,N*2C
$GPRMC,133138.9,V,4729.22130,N,01904.75728,E,,,170424,004.1,E,N*17
$GPGGA,133138.9,4729.22130,N,01904.75728,E,0,00,,,M,,M,,*48
$GPVTG,,T,,M,,N,,K,N*2C
$GPRMC,133139.0,V,4729.22130,N,01904.75728,E,,,170424,004.1,E,N*1F
$GPGGA,133139.0,4729.22130,N,01904.75728,E,0,00,,,M,,M,,*40
$GPVTG,,T,,M,,N,,K,N*2C
$GPGSA,A,1,,,,,,,,,,,,,,,*1E
$GPGSV,1,1,04,49,32,205,00,84,40,063,17,07,05,328,00,08,27,302,00*7A
$GPRMC,133139.1,V,4729.22130,N,01904.75728,E,,,170424,004.1,E,N*1E
$GPGGA,133139.1,4729.22130,N,01904.75728,E,0,00,,,M,,M,,*41
$GPVTG,,T,,M,,N,,K,N*2C
$GPRMC,133139.2,V,4729.22130,N,01904.75728,E,,,170424,004.1,E,N*1D
$GPGGA,133139.2,4729.22130,N,01904.75728,E,0,00,,,M,,M,,*42
$GPVTG,,T,,M,,N,,K,N*2C
$GPRMC,133139.3,V,4729.22130,N,01904.75728,E,,,170424,004.1,E,N*1C
$GPGGA,133139.3,4729.22130,N,01904.75728,E,0,00,,,M,,M,,*43
$GPVTG,,T,,M,,N,,K,N*2C
$GPRMC,133139.4,V,4729.22130,N,01904.75728,E,,,170424,004.1,E,N*1B
$GPGGA,133139.4,4729.22130,N,01904.75728,E,0,00,,,M,,M,,*44
$GPVTG,,T,,M,,N,,K,N*2C
$GPRMC,133139.5,V,4729.22130,N,01904.75728,E,,,170424,004.1,E,N*1A
$GPGGA,133139.5,4729.22130,N,01904.75728,E,0,00,,,M,,M,,*45
$GPVTG,,T,,M,,N,,K,N*2C
$GPRMC,133139.6,V,4729.22130,N,01904.75728,E,,,170424,004.1,E,N*19
$GPGGA,133139.6,4729.22130,N,01904.75728,E,0,00,,,M,,M,,*46
$GPVTG,,T,,M,,N,,K,N*2C
$GPRMC,133139.7,V,4729.22130,N,01904.75728,E,,,170424,004.1,E,N*18
$GPGGA,133139.7,4729.22130,N,01904.75728,E,0,00,,,M,,M,,*47
$GPVTG,,T,,M,,N,,K,N*2C
$GPRMC,133139.8,V,4729.22130,N,01904.75728,E,,,170424,004.1,E,N*17
$GPGGA,133139.8,4729.22130,N,01904.75728,E,0,00,,,M,,M,,*48
$GPVTG,,T,,M,,N,,K,N*2C
$GPRMC,133139.9,V,4729.22130,N,01904.75728,E,,,170424,004.1,E,N*16
$GPGGA,133139.9,4729.22130,N,01904.75728,E,0,00,,,M,,M,,*49
$GPVTG,,T,,M,,N,,K,N*2C
$GPRMC,133140.0,V,4729.22130,N,01904.75728,E,,,170424,004.1,E,N*11
$GPGGA,133140.0,4729.22130,N,01904.75728,E,0,00,,,M,,M,,*4E
$GPVTG,,T,,M,,N,,K,N*2C
$GPGSA,A,1,,,,,,,,,,,,,,,*1E
$GPGSV,1,1,04,49,32,205,00,07,05,328,00,08,27,302,00,10,52,166,00*76
$GPRMC,133140.1,V,4729.22130,N,01904.75728,E,,,170424,004.1,E,N*10
$GPGGA,133140.1,4729.22130,N,01904.75728,E,0,00,,,M,,M,,*4F
$GPVTG,,T,,M,,N,,K,N*2C
$GPRMC,133140.2,V,4729.22130,N,01904.75728,E,,,170424,004.1,E,N*13
$GPGGA,133140.2,4729.22130,N,01904.75728,E,0,00,,,M,,M,,*4C
$GPVTG,,T,,M,,N,,K,N*2C
$GPRMC,133140.3,V,4729.22130,N,01904.75728,E,,,170424,004.1,E,N*12
$GPGGA,133140.3,4729.22130,N,01904.75728,E,0,00,,,M,,M,,*4D
$GPVTG,,T,,M,,N,,K,N*2C
$GPRMC,133140.4,V,4729.22130,N,01904.75728,E,,,170424,004.1,E,N*15
$GPGGA,133140.4,4729.22130,N,01904.75728,E,0,00,,,M,,M,,*4A
$GPVTG,,T,,M,,N,,K,N*2C
$GPRMC,133140.5,V,4729.22130,N,01904.75728,E,,,170424,004.1,E,N*14
$GPGGA,133140.5,4729.22130,N,01904.75728,E,0,00,,,M,,M,,*4B
$GPVTG,,T,,M,,N,,K,N*2C
$GPRMC,133140.6,V,4729.22130,N,01904.75728,E,,,170424,004.1,E,N*17
$GPGGA,133140.6,4729.22130,N,01904.75728,E,0,00,,,M,,M,,*48
$GPVTG,,T,,M,,N,,K,N*2C
$GPRMC,133140.7,V,4729.22130,N,01904.75728,E,,,170424,004.1,E,N*16
$GPGGA,133140.7,4729.22130,N,01904.75728,E,0,00,,,M,,M,,*49
$GPVTG,,T,,M,,N,,K,N*2C
$GPRMC,133140.8,V,4729.22130,N,01904.75728,E,,,170424,004.1,E,N*19
$GPGGA,133140.8,4729.22130,N,01904.75728,E,0,00,,,M,,M,,*46
$GPVTG,,T,,M,,N,,K,N*2C
$GPRMC,133140.9,V,4729.22130,N,01904.75728,E,,,170424,004.1,E,N*18
$GPGGA,133140.9,4729.22130,N,01904.75728,E,0,00,,,M,,M,,*47
$GPVTG,,T,,M,,N,,K,N*2C
$GPRMC,133141.0,V,4729.22130,N,01904.75728,E,,,170424,004.1,E,N*10
$GPGGA,133141.0,4729.22130,N,01904.75728,E,0,00,,,M,,M,,*4F
$GPVTG,,T,,M,,N,,K,N*2C
$GPGSA,A,1,,,,,,,,,,,,,,,*1E
$GPGSV,1,1,04,49,32,205,00,07,05,328,00,08,27,302,00,10,52,166,00*76
$GPRMC,133141.1,V,4729.22130,N,01904.75728,E,,,170424,004.1,E,N*11
$GPGGA,133141.1,4729.22130,N,01904.75728,E,0,00,,,M,,M,,*4E
$GPVTG,,T,,M,,N,,K,N*2C
$GPRMC,133141.2,V,4729.22130,N,01904.75728,E,,,170424,004.1,E,N*12
$GPGGA,133141.2,4729.22130,N,01904.75728,E,0,00,,,M,,M,,*4D
$GPVTG,,T,,M,,N,,K,N*2C
$GPRMC,133141.3,V,4729.22130,N,01904.75728,E,,,170424,004.1,E,N*13
$GPGGA,133141.3,4729.22130,N,01904.75728,E,0,00,,,M,,M,,*4C
$GPVTG,,T,,M,,N,,K,N*2C
$GPRMC,133141.4,V,4729.22130,N,01904.75728,E,,,170424,004.1,E,N*14
$GPGGA,133141.4,4729.22130,N,01904.75728,E,0,00,,,M,,M,,*4B
$GPVTG,,T,,M,,N,,K,N*2C
$GPRMC,133141.5,V,4729.22130,N,01904.75728,E,,,170424,004.1,E,N*15
$GPGGA,133141.5,4729.22130,N,01904.75728,E,0,00,,,M,,M,,*4A
$GPVTG,,T,,M,,N,,K,N*2C
$GPRMC,133141.6,V,4729.22130,N,01904.75728,E,,,170424,004.1,E,N*16
$GPGGA,133141.6,4729.22130,N,01904.75728,E,0,00,,,M,,M,,*49
$GPVTG,,T,,M,,N,,K,N*2C
$GPRMC,133141.7,V,4729.22130,N,01904.75728,E,,,170424,004.1,E,N*17
$GPGGA,133141.7,4729.22130,N,01904.75728,E,0,00,,,M,,M,,*48
$GPVTG,,T,,M,,N,,K,N*2C
$GPRMC,133141.8,V,4729.22130,N,01904.75728,E,,,170424,004.1,E,N*18
$GPGGA,133141.8,4729.22130,N,01904.75728,E,0,00,,,M,,M,,*47
$GPVTG,,T,,M,,N,,K,N*2C
$GPRMC,133141.9,V,4729.22130,N,01904.75728,E,,,170424,004.1,E,N*19
$GPGGA,133141.9,4729.22130,N,01904.75728,E,0,00,,,M,,M,,*46
$GPVTG,,T,,M,,N,,K,N*2C
$GPRMC,133142.0,V,4729.22130,N,01904.75728,E,,,170424,004.1,E,N*13
$GPGGA,133142.0,4729.22130,N,01904.75728,E,0,00,,,M,,M,,*4C
$GPVTG,,T,,M,,N,,K,N*2C
$GPGSA,A,1,,,,,,,,,,,,,,,*1E
$GPGSV,1,1,04,49,32,205,00,07,05,328,00,08,27,302,00,10,52,166,00*76
$GPRMC,133142.1,V,4729.22130,N,01904.75728,E,,,170424,004.1,E,N*12
$GPGGA,133142.1,4729.22130,N,01904.75728,E,0,00,,,M,,M,,*4D
$GPVTG,,T,,M,,N,,K,N*2C
$GPRMC,133142.2,V,4729.22130,N,01904.75728,E,,,170424,004.1,E,N*11
$GPGGA,133142.2,4729.22130,N,01904.75728,E,0,00,,,M,,M,,*4E
$GPVTG,,T,,M,,N,,K,N*2C
$GPRMC,133142.3,V,4729.22130,N,01904.75728,E,,,170424,004.1,E,N*10
$GPGGA,133142.3,4729.22130,N,01904.75728,E,0,00,,,M,,M,,*4F
$GPVTG,,T,,M,,N,,K,N*2C
$GPRMC,133142.4,V,4729.22130,N,01904.75728,E,,,170424,004.1,E,N*17
$GPGGA,133142.4,4729.22130,N,01904.75728,E,0,00,,,M,,M,,*48
$GPVTG,,T,,M,,N,,K,N*2C
$GPRMC,133142.5,V,4729.22130,N,01904.75728,E,,,170424,004.1,E,N*16
$GPGGA,133142.5,4729.22130,N,01904.75728,E,0,00,,,M,,M,,*49
$GPVTG,,T,,M,,N,,K,N*2C
$GPRMC,133142.6,V,4729.22130,N,01904.75728,E,,,170424,004.1,E,N*15
$GPGGA,133142.6,4729.22130,N,01904.75728,E,0,00,,,M,,M,,*4A
$GPVTG,,T,,M,,N,,K,N*2C
$GPRMC,133142.7,V,4729.22130,N,01904.75728,E,,,170424,004.1,E,N*14
$GPGGA,133142.7,4729.22130,N,01904.75728,E,0,00,,,M,,M,,*4B
$GPVTG,,T,,M,,N,,K,N*2C
$GPRMC,133142.8,V,4729.22130,N,01904.75728,E,,,170424,004.1,E,N*1B
$GPGGA,133142.8,4729.22130,N,01904.75728,E,0,00,,,M,,M,,*44
$GPVTG,,T,,M,,N,,K,N*2C
$GPRMC,133142.9,V,4729.22130,N,01904.75728,E,,,170424,004.1,E,N*1A
$GPGGA,133142.9,4729.22130,N,01904.75728,E,0,00,,,M,,M,,*45
$GPVTG,,T,,M,,N,,K,N*2C
$GPRMC,133143.0,V,4729.22130,N,01904.75728,E,,,170424,004.1,E,N*12
$GPGGA,133143.0,4729.22130,N,01904.75728,E,0,00,,,M,,M,,*4D
$GPVTG,,T,,M,,N,,K,N*2C
$GPGSA,A,1,,,,,,,,,,,,,,,*1E
$GPGSV,1,1,04,49,32,205,00,07,05,328,00,08,27,302,00,10,52,166,00*76
$GPRMC,133143.1,V,4729.22130,N,01904.75728,E,,,170424,004.1,E,N*13
$GPGGA,133143.1,4729.22130,N,01904.75728,E,0,00,,,M,,M,,*4C
$GPVTG,,T,,M,,N,,K,N*2C
$GPRMC,133143.2,V,4729.22130,N,01904.75728,E,,,170424,004.1,E,N*10
$GPGGA,133143.2,4729.22130,N,01904.75728,E,0,00,,,M,,M,,*4F
$GPVTG,,T,,M,,N,,K,N*2C
$GPRMC,133143.3,V,4729.22130,N,01904.75728,E,,,170424,004.1,E,N*11
$GPGGA,133143.3,4729.22130,N,01904.75728,E,0,00,,,M,,M,,*4E
$GPVTG,,T,,M,,N,,K,N*2C
$GPRMC,133143.4,V,4729.22130,N,01904.75728,E,,,170424,004.1,E,N*16
$GPGGA,133143.4,4729.22130,N,01904.75728,E,0,00,,,M,,M,,*49
$GPVTG,,T,,M,,N,,K,N*2C
$GPRMC,133143.5,V,4729.22130,N,01904.75728,E,,,170424,004.1,E,N*17
$GPGGA,133143.5,4729.22130,N,01904.75728,E,0,00,,,M,,M,,*48
$GPVTG,,T,,M,,N,,K,N*2C
$GPRMC,133143.6,V,4729.22130,N,01904.75728,E,,,170424,004.1,E,N*14
$GPGGA,133143.6,4729.22130,N,01904.75728,E,0,00,,,M,,M,,*4B
$GPVTG,,T,,M,,N,,K,N*2C
$GPRMC,133143.7,V,4729.22130,N,01904.75728,E,,,170424,004.1,E,N*15
$GPGGA,133143.7,4729.22130,N,01904.75728,E,0,00,,,M,,M,,*4A
$GPVTG,,T,,M,,N,,K,N*2C
$GPRMC,133143.8,V,4729.22130,N,01904.75728,E,,,170424,004.1,E,N*1A
$GPGGA,133143.8,4729.22130,N,01904.75728,E,0,00,,,M,,M,,*45
$GPVTG,,T,,M,,N,,K,N*2C
$GPRMC,133143.9,V,4729.22130,N,01904.75728,E,,,170424,004.1,E,N*1B
$GPGGA,133143.9,4729.22130,N,01904.75728,E,0,00,,,M,,M,,*44
$GPVTG,,T,,M,,N,,K,N*2C
$GPRMC,133144.0,V,4729.22130,N,01904.75728,E,,,170424,004.1,E,N*15
$GPGGA,133144.0,4729.22130,N,01904.75728,E,0,00,,,M,,M,,*4A
$GPVTG,,T,,M,,N,,K,N*2C
$GPGSA,A,1,,,,,,,,,,,,,,,*1E
$GPGSV,1,1,04,49,32,205,00,07,05,328,00,08,27,302,00,10,52,166,00*76
$GPRMC,133144.1,V,4729.22130,N,01904.75728,E,,,170424,004.1,E,N*14
$GPGGA,133144.1,4729.22130,N,01904.75728,E,0,00,,,M,,M,,*4B
$GPVTG,,T,,M,,N,,K,N*2C
$GPRMC,133144.2,V,4729.22130,N,01904.75728,E,,,170424,004.1,E,N*17
$GPGGA,133144.2,4729.22130,N,01904.75728,E,0,00,,,M,,M,,*48
$GPVTG,,T,,M,,N,,K,N*2C
$GPRMC,133144.3,V,4729.22130,N,01904.75728,E,,,170424,004.1,E,N*16
$GPGGA,133144.3,4729.22130,N,01904.75728,E,0,00,,,M,,M,,*49
$GPVTG,,T,,M,,N,,K,N*2C
$GPRMC,133144.4,V,4729.22130,N,01904.75728,E,,,170424,004.1,E,N*11
$GPGGA,133144.4,4729.22130,N,01904.75728,E,0,00,,,M,,M,,*4E
$GPVTG,,T,,M,,N,,K,N*2C
$GPRMC,133144.5,V,4729.22130,N,01904.75728,E,,,170424,004.1,E,N*10
$GPGGA,133144.5,4729.22130,N,01904.75728,E,0,00,,,M,,M,,*4F
$GPVTG,,T,,M,,N,,K,N*2C
$GPRMC,133144.6,V,4729.22130,N,01904.75728,E,,,170424,004.1,E,N*13
$GPGGA,133144.6,4729.22130,N,01904.75728,E,0,00,,,M,,M,,*4C
$GPVTG,,T,,M,,N,,K,N*2C
$GPRMC,133144.7,V,4729.22130,N,01904.75728,E,,,170424,004.1,E,N*12
$GPGGA,133144.7,4729.22130,N,01904.75728,E,0,00,,,M,,M,,*4D
$GPVTG,,T,,M,,N,,K,N*2C
$GPRMC,133144.8,V,4729.22130,N,01904.75728,E,,,170424,004.1,E,N*1D
$GPGGA,133144.8,4729.22130,N,01904.75728,E,0,00,,,M,,M,,*42
$GPVTG,,T,,M,,N,,K,N*2C
$GPRMC,133144.9,V,4729.22130,N,01904.75728,E,,,170424,004.1,E,N*1C
$GPGGA,133144.9,4729.22130,N,01904.75728,E,0,00,,,M,,M,,*43
$GPVTG,,T,,M,,N,,K,N*2C
$GPRMC,133145.0,V,4729.22130,N,01904.75728,E,,,170424,004.1,E,N*14
$GPGGA,133145.0,4729.22130,N,01904.75728,E,0,00,,,M,,M,,*4B
$GPVTG,,T,,M,,N,,K,N*2C
$GPGSA,A,1,,,,,,,,,,,,,,,*1E
$GPGSV,1,1,04,49,32,205,00,84,40,063,17,07,05,328,00,08,27,302,00*7A
$GPRMC,133145.1,V,4729.22130,N,01904.75728,E,,,170424,004.1,E,N*15
$GPGGA,133145.1,4729.22130,N,01904.75728,E,0,00,,,M,,M,,*4A
$GPVTG,,T,,M,,N,,K,N*2C
$GPRMC,133145.2,V,4729.22130,N,01904.75728,E,,,170424,004.1,E,N*16
$GPGGA,133145.2,4729.22130,N,01904.75728,E,0,00,,,M,,M,,*49
$GPVTG,,T,,M,,N,,K,N*2C
$GPRMC,133145.3,V,4729.22130,N,01904.75728,E,,,170424,004.1,E,N*17
$GPGGA,133145.3,4729.22130,N,01904.75728,E,0,00,,,M,,M,,*48
$GPVTG,,T,,M,,N,,K,N*2C
$GPRMC,133145.4,V,4729.22130,N,01904.75728,E,,,170424,004.1,E,N*10
$GPGGA,133145.4,4729.22130,N,01904.75728,E,0,00,,,M,,M,,*4F
$GPVTG,,T,,M,,N,,K,N*2C
$GPRMC,133145.5,V,4729.22130,N,01904.75728,E,,,170424,004.1,E,N*11
$GPGGA,133145.5,4729.22130,N,01904.75728,E,0,00,,,M,,M,,*4E
$GPVTG,,T,,M,,N,,K,N*2C
$GPRMC,133145.6,V,4729.22130,N,01904.75728,E,,,170424,004.1,E,N*12
$GPGGA,133145.6,4729.22130,N,01904.75728,E,0,00,,,M,,M,,*4D
$GPVTG,,T,,M,,N,,K,N*2C
$GPRMC,133145.7,V,4729.22130,N,01904.75728,E,,,170424,004.1,E,N*13
$GPGGA,133145.7,4729.22130,N,01904.75728,E,0,00,,,M,,M,,*4C
$GPVTG,,T,,M,,N,,K,N*2C
$GPRMC,133145.8,V,4729.22130,N,01904.75728,E,,,170424,004.1,E,N*1C
$GPGGA,133145.8,4729.22130,N,01904.75728,E,0,00,,,M,,M,,*43
$GPVTG,,T,,M,,N,,K,N*2C
$GPRMC,133145.9,V,4729.22130,N,01904.75728,E,,,170424,004.1,E,N*1D
$GPGGA,133145.9,4729.22130,N,01904.75728,E,0,00,,,M,,M,,*42
$GPVTG,,T,,M,,N,,K,N*2C
$GPRMC,133146.0,V,4729.22130,N,01904.75728,E,,,170424,004.1,E,N*17
$GPGGA,133146.0,4729.22130,N,01904.75728,E,0,00,,,M,,M,,*48
$GPVTG,,T,,M,,N,,K,N*2C
$GPGSA,A,1,,,,,,,,,,,,,,,*1E
$GPGSV,1,1,04,49,32,205,00,84,40,063,17,07,05,328,00,08,27,302,00*7A
$GPRMC,133146.1,V,4729.22130,N,01904.75728,E,,,170424,004.1,E,N*16
$GPGGA,133146.1,4729.22130,N,01904.75728,E,0,00,,,M,,M,,*49
$GPVTG,,T,,M,,N,,K,N*2C
$GPRMC,133146.2,V,4729.22130,N,01904.75728,E,,,170424,004.1,E,N*15
$GPGGA,133146.2,4729.22130,N,01904.75728,E,0,00,,,M,,M,,*4A
$GPVTG,,T,,M,,N,,K,N*2C
$GPRMC,133146.3,V,4729.22130,N,01904.75728,E,,,170424,004.1,E,N*14
$GPGGA,133146.3,4729.22130,N,01904.75728,E,0,00,,,M,,M,,*4B
$GPVTG,,T,,M,,N,,K,N*2C
$GPRMC,133146.4,V,4729.22130,N,01904.75728,E,,,170424,004.1,E,N*13
$GPGGA,133146.4,4729.22130,N,01904.75728,E,0,00,,,M,,M,,*4C
$GPVTG,,T,,M,,N,,K,N*2C
$GPRMC,133146.5,V,4729.22130,N,01904.75728,E,,,170424,004.1,E,N*12
$GPGGA,133146.5,4729.22130,N,01904.75728,E,0,00,,,M,,M,,*4D
$GPVTG,,T,,M,,N,,K,N*2C
$GPRMC,133146.6,V,4729.22130,N,01904.75728,E,,,170424,004.1,E,N*11
$GPGGA,133146.6,4729.22130,N,01904.75728,E,0,00,,,M,,M,,*4E
$GPVTG,,T,,M,,N,,K,N*2C
$GPRMC,133146.7,V,4729.22130,N,01904.75728,E,,,170424,004.1,E,N*10
$GPGGA,133146.7,4729.22130,N,01904.75728,E,0,00,,,M,,M,,*4F
$GPVTG,,T,,M,,N,,K,N*2C
$GPRMC,133146.8,V,4729.22130,N,01904.75728,E,,,170424,004.1,E,N*1F
$GPGGA,133146.8,4729.22130,N,01904.75728,E,0,00,,,M,,M,,*40
$GPVTG,,T,,M,,N,,K,N*2C
$GPRMC,133146.9,V,4729.22130,N,01904.75728,E,,,170424,004.1,E,N*1E
$GPGGA,133146.9,4729.22130,N,01904.75728,E,0,00,,,M,,M,,*41
$GPVTG,,T,,M,,N,,K,N*2C
$GPRMC,133147.0,V,4729.22130,N,01904.75728,E,,,170424,004.1,E,N*16
$GPGGA,133147.0,4729.22130,N,01904.75728,E,0,00,,,M,,M,,*49
$GPVTG,,T,,M,,N,,K,N*2C
$GPGSA,A,1,,,,,,,,,,,,,,,*1E
$GPGSV,1,1,04,49,32,205,00,84,40,063,17,07,05,328,00,08,27,302,00*7A
$GPRMC,133147.1,V,4729.22130,N,01904.75728,E,,,170424,004.1,E,N*17
$GPGGA,133147.1,4729.22130,N,01904.75728,E,0,00,,,M,,M,,*48
$GPVTG,,T,,M,,N,,K,N*2C
$GPRMC,133147.2,V,4729.22130,N,01904.75728,E,,,170424,004.1,E,N*14
$GPGGA,133147.2,4729.22130,N,01904.75728,E,0,00,,,M,,M,,*4B
$GPVTG,,T,,M,,N,,K,N*2C
$GPRMC,133147.3,V,4729.22130,N,01904.75728,E,,,170424,004.1,E,N*15
$GPGGA,133147.3,4729.22130,N,01904.75728,E,0,00,,,M,,M,,*4A
$GPVTG,,T,,M,,N,,K,N*2C
$GPRMC,133147.4,V,4729.22130,N,01904.75728,E,,,170424,004.1,E,N*12
$GPGGA,133147.4,4729.22130,N,01904.75728,E,0,00,,,M,,M,,*4D
$GPVTG,,T,,M,,N,,K,N*2C
$GPRMC,133147.5,V,4729.22130,N,01904.75728,E,,,170424,004.1,E,N*13
$GPGGA,133147.5,4729.22130,N,01904.75728,E,0,00,,,M,,M,,*4C
$GPVTG,,T,,M,,N,,K,N*2C
$GPRMC,133147.6,V,4729.22130,N,01904.75728,E,,,170424,004.1,E,N*10
$GPGGA,133147.6,4729.22130,N,01904.75728,E,0,00,,,M,,M,,*4F
$GPVTG,,T,,M,,N,,K,N*2C
$GPRMC,133147.7,V,4729.22130,N,01904.75728,E,,,170424,004.1,E,N*11
$GPGGA,133147.7,4729.22130,N,01904.75728,E,0,00,,,M,,M,,*4E
$GPVTG,,T,,M,,N,,K,N*2C
$GPRMC,133147.8,V,4729.22130,N,01904.75728,E,,,170424,004.1,E,N*1E
$GPGGA,133147.8,4729.22130,N,01904.75728,E,0,00,,,M,,M,,*41
$GPVTG,,T,,M,,N,,K,N*2C
$GPRMC,133147.9,V,4729.22130,N,01904.75728,E,,,170424,004.1,E,N*1F
$GPGGA,133147.9,4729.22130,N,01904.75728,E,0,00,,,M,,M,,*40
$GPVTG,,T,,M,,N,,K,N*2C
$GPRMC,133148.0,V,4729.22130,N,01904.75728,E,,,170424,004.1,E,N*19
$GPGGA,133148.0,4729.22130,N,01904.75728,E,0,00,,,M,,M,,*46
$GPVTG,,T,,M,,N,,K,N*2C
$GPGSA,A,1,,,,,,,,,,,,,,,*1E
$GPGSV,1,1,04,49,32,205,00,07,05,328,00,08,27,302,00,10,52,166,00*76
$GPRMC,133148.1,V,4729.22130,N,01904.75728,E,,,170424,004.1,E,N*18
$GPGGA,133148.1,4729.22130,N,01904.75728,E,0,00,,,M,,M,,*47
$GPVTG,,T,,M,,N,,K,N*2C
$GPRMC,133148.2,V,4729.22130,N,01904.75728,E,,,170424,004.1,E,N*1B
$GPGGA,133148.2,4729.22130,N,01904.75728,E,0,00,,,M,,M,,*44
$GPVTG,,T,,M,,N,,K,N*2C
$GPRMC,133148.3,V,4729.22130,N,01904.75728,E,,,170424,004.1,E,N*1A
$GPGGA,133148.3,4729.22130,N,01904.75728,E,0,00,,,M,,M,,*45
$GPVTG,,T,,M,,N,,K,N*2C
$GPRMC,133148.4,V,4729.22130,N,01904.75728,E,,,170424,004.1,E,N*1D
$GPGGA,133148.4,4729.22130,N,01904.75728,E,0,00,,,M,,M,,*42
$GPVTG,,T,,M,,N,,K,N*2C
$GPRMC,133148.5,V,4729.22130,N,01904.75728,E,,,170424,004.1,E,N*1C
$GPGGA,133148.5,4729.22130,N,01904.75728,E,0,00,,,M,,M,,*43
$GPVTG,,T,,M,,N,,K,N*2C
$GPRMC,133148.6,V,4729.22130,N,01904.75728,E,,,170424,004.1,E,N*1F
$GPGGA,133148.6,4729.22130,N,01904.75728,E,0,00,,,M,,M,,*40
$GPVTG,,T,,M,,N,,K,N*2C
$GPRMC,133148.7,V,4729.22130,N,01904.75728,E,,,170424,004.1,E,N*1E
$GPGGA,133148.7,4729.22130,N,01904.75728,E,0,00,,,M,,M,,*41
$GPVTG,,T,,M,,N,,K,N*2C
$GPRMC,133148.8,V,4729.22130,N,01904.75728,E,,,170424,004.1,E,N*11
$GPGGA,133148.8,4729.22130,N,01904.75728,E,0,00,,,M,,M,,*4E
$GPVTG,,T,,M,,N,,K,N*2C
$GPRMC,133148.9,V,4729.22130,N,01904.75728,E,,,170424,004.1,E,N*10
$GPGGA,133148.9,4729.22130,N,01904.75728,E,0,00,,,M,,M,,*4F
$GPVTG,,T,,M,,N,,K,N*2C
$GPRMC,133149.0,V,4729.22130,N,01904.75728,E,,,170424,004.1,E,N*18
$GPGGA,133149.0,4729.22130,N,01904.75728,E,0,00,,,M,,M,,*47
$GPVTG,,T,,M,,N,,K,N*2C
$GPGSA,A,1,,,,,,,,,,,,,,,*1E
$GPGSV,1,1,04,49,32,205,00,07,05,328,00,08,27,302,00,10,52,166,00*76
$GPRMC,133149.1,V,4729.22130,N,01904.75728,E,,,170424,004.1,E,N*19
$GPGGA,133149.1,4729.22130,N,01904.75728,E,0,00,,,M,,M,,*46
$GPVTG,,T,,M,,N,,K,N*2C
$GPRMC,133149.2,V,4729.22130,N,01904.75728,E,,,170424,004.1,E,N*1A
$GPGGA,133149.2,4729.22130,N,01904.75728,E,0,00,,,M,,M,,*45
$GPVTG,,T,,M,,N,,K,N*2C
$GPRMC,133149.3,V,4729.22130,N,01904.75728,E,,,170424,004.1,E,N*1B
$GPGGA,133149.3,4729.22130,N,01904.75728,E,0,00,,,M,,M,,*44
$GPVTG,,T,,M,,N,,K,N*2C
$GPRMC,133149.4,V,4729.22130,N,01904.75728,E,,,170424,004.1,E,N*1C
$GPGGA,133149.4,4729.22130,N,01904.75728,E,0,00,,,M,,M,,*43
$GPVTG,,T,,M,,N,,K,N*2C
$GPRMC,133149.5,V,4729.22130,N,01904.75728,E,,,170424,004.1,E,N*1D
$GPGGA,133149.5,4729.22130,N,01904.75728,E,0,00,,,M,,M,,*42
$GPVTG,,T,,M,,N,,K,N*2C
$GPRMC,133149.6,V,4729.22130,N,01904.75728,E,,,170424,004.1,E,N*1E
$GPGGA,133149.6,4729.22130,N,01904.75728,E,0,00,,,M,,M,,*41
$GPVTG,,T,,M,,N,,K,N*2C
$GPRMC,133149.7,V,4729.22130,N,01904.75728,E,,,170424,004.1,E,N*1F
$GPGGA,133149.7,4729.22130,N,01904.75728,E,0,00,,,M,,M,,*40
$GPVTG,,T,,M,,N,,K,N*2C
$GPRMC,133149.8,V,4729.22130,N,01904.75728,E,,,170424,004.1,E,N*10
$GPGGA,133149.8,4729.22130,N,01904.75728,E,0,00,,,M,,M,,*4F
$GPVTG,,T,,M,,N,,K,N*2C
$GPRMC,133149.9,V,4729.22130,N,01904.75728,E,,,170424,004.1,E,N*11
$GPGGA,133149.9,4729.22130,N,01904.75728,E,0,00,,,M,,M,,*4E
$GPVTG,,T,,M,,N,,K,N*2C
$GPRMC,133150.0,V,4729.22130,N,01904.75728,E,,,170424,004.1,E,N*10
$GPGGA,133150.0,4729.22130,N,01904.75728,E,0,00,,,M,,M,,*4F
$GPVTG,,T,,M,,N,,K,N*2C
$GPGSA,A,1,,,,,,,,,,,,,,,*1E
$GPGSV,1,1,04,49,32,205,00,07,05,328,00,08,27,302,00,10,52,166,00*76
$GPRMC,133150.1,V,4729.22130,N,01904.75728,E,,,170424,004.1,E,N*11
$GPGGA,133150.1,4729.22130,N,01904.75728,E,0,00,,,M,,M,,*4E
$GPVTG,,T,,M,,N,,K,N*2C
$GPRMC,133150.2,V,4729.22130,N,01904.75728,E,,,170424,004.1,E,N*12
$GPGGA,133150.2,4729.22130,N,01904.75728,E,0,00,,,M,,M,,*4D
$GPVTG,,T,,M,,N,,K,N*2C
$GPRMC,133150.3,V,4729.22130,N,01904.75728,E,,,170424,004.1,E,N*13
$GPGGA,133150.3,4729.22130,N,01904.75728,E,0,00,,,M,,M,,*4C
$GPVTG,,T,,M,,N,,K,N*2C
$GPRMC,133150.4,V,4729.22130,N,01904.75728,E,,,170424,004.1,E,N*14
$GPGGA,133150.4,4729.22130,N,01904.75728,E,0,00,,,M,,M,,*4B
$GPVTG,,T,,M,,N,,K,N*2C
$GPRMC,133150.5,V,4729.22130,N,01904.75728,E,,,170424,004.1,E,N*15
$GPGGA,133150.5,4729.22130,N,01904.75728,E,0,00,,,M,,M,,*4A
$GPVTG,,T,,M,,N,,K,N*2C
$GPRMC,133150.6,V,4729.22130,N,01904.75728,E,,,170424,004.1,E,N*16
$GPGGA,133150.6,4729.22130,N,01904.75728,E,0,00,,,M,,M,,*49
$GPVTG,,T,,M,,N,,K,N*2C
$GPRMC,133150.7,V,4729.22130,N,01904.75728,E,,,170424,004.1,E,N*17
$GPGGA,133150.7,4729.22130,N,01904.75728,E,0,00,,,M,,M,,*48
$GPVTG,,T,,M,,N,,K,N*2C
$GPRMC,133150.8,V,4729.22130,N,01904.75728,E,,,170424,004.1,E,N*18
$GPGGA,133150.8,4729.22130,N,01904.75728,E,0,00,,,M,,M,,*47
$GPVTG,,T,,M,,N,,K,N*2C
$GPRMC,133150.9,V,4729.22130,N,01904.75728,E,,,170424,004.1,E,N*19
$GPGGA,133150.9,4729.22130,N,01904.75728,E,0,00,,,M,,M,,*46
$GPVTG,,T,,M,,N,,K,N*2C
$GPRMC,133151.0,V,4729.22130,N,01904.75728,E,,,170424,004.1,E,N*11
$GPGGA,133151.0,4729.22130,N,01904.75728,E,0,00,,,M,,M,,*4E
$GPVTG,,T,,M,,N,,K,N*2C
$GPGSA,A,1,,,,,,,,,,,,,,,*1E
$GPGSV,1,1,04,49,32,205,00,07,05,328,00,08,27,302,00,10,52,166,00*76
$GPRMC,133151.1,V,4729.22130,N,01904.75728,E,,,170424,004.1,E,N*10
$GPGGA,133151.1,4729.22130,N,01904.75728,E,0,00,,,M,,M,,*4F
$GPVTG,,T,,M,,N,,K,N*2C
$GPRMC,133151.2,V,4729.22130,N,01904.75728,E,,,170424,004.1,E,N*13
$GPGGA,133151.2,4729.22130,N,01904.75728,E,0,00,,,M,,M,,*4C
$GPVTG,,T,,M,,N,,K,N*2C
$GPRMC,133151.3,V,4729.22130,N,01904.75728,E,,,170424,004.1,E,N*12
$GPGGA,133151.3,4729.22130,N,01904.75728,E,0,00,,,M,,M,,*4D
$GPVTG,,T,,M,,N,,K,N*2C
$GPRMC,133151.4,V,4729.22130,N,01904.75728,E,,,170424,004.1,E,N*15
$GPGGA,133151.4,4729.22130,N,01904.75728,E,0,00,,,M,,M,,*4A
$GPVTG,,T,,M,,N,,K,N*2C
$GPRMC,133151.5,V,4729.22130,N,01904.75728,E,,,170424,004.1,E,N*14
$GPGGA,133151.5,4729.22130,N,01904.75728,E,0,00,,,M,,M,,*4B
$GPVTG,,T,,M,,N,,K,N*2C
$GPRMC,133151.6,V,4729.22130,N,01904.75728,E,,,170424,004.1,E,N*17
$GPGGA,133151.6,4729.22130,N,01904.75728,E,0,00,,,M,,M,,*48
$GPVTG,,T,,M,,N,,K,N*2C
$GPRMC,133151.7,V,4729.22130,N,01904.75728,E,,,170424,004.1,E,N*16
$GPGGA,133151.7,4729.22130,N,01904.75728,E,0,00,,,M,,M,,*49
$GPVTG,,T,,M,,N,,K,N*2C
$GPRMC,133151.8,V,4729.22130,N,01904.75728,E,,,170424,004.1,E,N*19
$GPGGA,133151.8,4729.22130,N,01904.75728,E,0,00,,,M,,M,,*46
$GPVTG,,T,,M,,N,,K,N*2C
$GPRMC,133151.9,V,4729.22130,N,01904.75728,E,,,170424,004.1,E,N*18
$GPGGA,133151.9,4729.22130,N,01904.75728,E,0,00,,,M,,M,,*47
$GPVTG,,T,,M,,N,,K,N*2C
$GPRMC,133152.0,V,4729.22130,N,01904.75728,E,,,170424,004.1,E,N*12
$GPGGA,133152.0,4729.22130,N,01904.75728,E,0,00,,,M,,M,,*4D
$GPVTG,,T,,M,,N,,K,N*2C
$GPGSA,A,1,,,,,,,,,,,,,,,*1E
$GPGSV,1,1,04,49,32,205,00,07,05,328,00,08,27,302,00,10,52,166,00*76
$GPRMC,133152.1,V,4729.22130,N,01904.75728,E,,,170424,004.1,E,N*13
$GPGGA,133152.1,4729.22130,N,01904.75728,E,0,00,,,M,,M,,*4C
$GPVTG,,T,,M,,N,,K,N*2C
$GPRMC,133152.2,V,4729.22130,N,01904.75728,E,,,170424,004.1,E,N*10
$GPGGA,133152.2,4729.22130,N,01904.75728,E,0,00,,,M,,M,,*4F
$GPVTG,,T,,M,,N,,K,N*2C
$GPRMC,133152.3,V,4729.22130,N,01904.75728,E,,,170424,004.1,E,N*11
$GPGGA,133152.3,4729.22130,N,01904.75728,E,0,00,,,M,,M,,*4E
$GPVTG,,T,,M,,N,,K,N*2C
$GPRMC,133152.4,V,4729.22130,N,01904.75728,E,,,170424,004.1,E,N*16
$GPGGA,133152.4,4729.22130,N,01904.75728,E,0,00,,,M,,M,,*49
$GPVTG,,T,,M,,N,,K,N*2C
$GPRMC,133152.5,V,4729.22130,N,01904.75728,E,,,170424,004.1,E,N*17
$GPGGA,133152.5,4729.22130,N,01904.75728,E,0,00,,,M,,M,,*48
$GPVTG,,T,,M,,N,,K,N*2C
$GPRMC,133152.6,V,4729.22130,N,01904.75728,E,,,170424,004.1,E,N*14
$GPGGA,133152.6,4729.22130,N,01904.75728,E,0,00,,,M,,M,,*4B
$GPVTG,,T,,M,,N,,K,N*2C
$GPRMC,133152.7,V,4729.22130,N,01904.75728,E,,,170424,004.1,E,N*15
$GPGGA,133152.7,4729.22130,N,01904.75728,E,0,00,,,M,,M,,*4A
$GPVTG,,T,,M,,N,,K,N*2C
$GPRMC,133152.8,V,4729.22130,N,01904.75728,E,,,170424,004.1,E,N*1A
$GPGGA,133152.8,4729.22130,N,01904.75728,E,0,00,,,M,,M,,*45
$GPVTG,,T,,M,,N,,K,N*2C
$GPRMC,133152.9,V,4729.22130,N,01904.75728,E,,,170424,004.1,E,N*1B
$GPGGA,133152.9,4729.22130,N,01904.75728,E,0,00,,,M,,M,,*44
$GPVTG,,T,,M,,N,,K,N*2C
$GPRMC,133153.0,V,4729.22130,N,01904.75728,E,,,170424,004.1,E,N*13
$GPGGA,133153.0,4729.22130,N,01904.75728,E,0,00,,,M,,M,,*4C
$GPVTG,,T,,M,,N,,K,N*2C
$GPGSA,A,1,,,,,,,,,,,,,,,*1E
$GPGSV,1,1,04,49,32,205,00,07,05,328,00,08,27,302,00,10,52,166,00*76
$GPRMC,133153.1,V,4729.22130,N,01904.75728,E,,,170424,004.1,E,N*12
$GPGGA,133153.1,4729.22130,N,01904.75728,E,0,00,,,M,,M,,*4D
$GPVTG,,T,,M,,N,,K,N*2C
$GPRMC,133153.2,V,4729.22130,N,01904.75728,E,,,170424,004.1,E,N*11
$GPGGA,133153.2,4729.22130,N,01904.75728,E,0,00,,,M,,M,,*4E
$GPVTG,,T,,M,,N,,K,N*2C
$GPRMC,133153.3,V,4729.22130,N,01904.75728,E,,,170424,004.1,E,N*10
$GPGGA,133153.3,4729.22130,N,01904.75728,E,0,00,,,M,,M,,*4F
$GPVTG,,T,,M,,N,,K,N*2C
$GPRMC,133153.4,V,4729.22130,N,01904.75728,E,,,170424,004.1,E,N*17
$GPGGA,133153.4,4729.22130,N,01904.75728,E,0,00,,,M,,M,,*48
$GPVTG,,T,,M,,N,,K,N*2C
$GPRMC,133153.5,V,4729.22130,N,01904.75728,E,,,170424,004.1,E,N*16
$GPGGA,133153.5,4729.22130,N,01904.75728,E,0,00,,,M,,M,,*49
$GPVTG,,T,,M,,N,,K,N*2C
$GPRMC,133153.6,V,4729.22130,N,01904.75728,E,,,170424,004.1,E,N*15
$GPGGA,133153.6,4729.22130,N,01904.75728,E,0,00,,,M,,M,,*4A
$GPVTG,,T,,M,,N,,K,N*2C
$GPRMC,133153.7,V,4729.22130,N,01904.75728,E,,,170424,004.1,E,N*14
$GPGGA,133153.7,4729.22130,N,01904.75728,E,0,00,,,M,,M,,*4B
$GPVTG,,T,,M,,N,,K,N*2C
$GPRMC,133153.8,V,4729.22130,N,01904.75728,E,,,170424,004.1,E,N*1B
$GPGGA,133153.8,4729.22130,N,01904.75728,E,0,00,,,M,,M,,*44
$GPVTG,,T,,M,,N,,K,N*2C
$GPRMC,133153.9,V,4729.22130,N,01904.75728,E,,,170424,004.1,E,N*1A
$GPGGA,133153.9,4729.22130,N,01904.75728,E,0,00,,,M,,M,,*45
$GPVTG,,T,,M,,N,,K,N*2C
$GPRMC,133154.0,V,4729.22130,N,01904.75728,E,,,170424,004.1,E,N*14
$GPGGA,133154.0,4729.22130,N,01904.75728,E,0,00,,,M,,M,,*4B
$GPVTG,,T,,M,,N,,K,N*2C
$GPGSA,A,1,,,,,,,,,,,,,,,*1E
$GPGSV,1,1,04,49,32,205,00,07,05,328,00,08,27,302,00,10,52,166,00*76
$GPRMC,133154.1,V,4729.22130,N,01904.75728,E,,,170424,004.1,E,N*15
$GPGGA,133154.1,4729.22130,N,01904.75728,E,0,00,,,M,,M,,*4A
$GPVTG,,T,,M,,N,,K,N*2C
$GPRMC,133154.2,V,4729.22130,N,01904.75728,E,,,170424,004.1,E,N*16
$GPGGA,133154.2,4729.22130,N,01904.75728,E,0,00,,,M,,M,,*49
$GPVTG,,T,,M,,N,,K,N*2C
$GPRMC,133154.3,V,4729.22130,N,01904.75728,E,,,170424,004.1,E,N*17
$GPGGA,133154.3,4729.22130,N,01904.75728,E,0,00,,,M,,M,,*48
$GPVTG,,T,,M,,N,,K,N*2C
$GPRMC,133154.4,V,4729.22130,N,01904.75728,E,,,170424,004.1,E,N*10
$GPGGA,133154.4,4729.22130,N,01904.75728,E,0,00,,,M,,M,,*4F
$GPVTG,,T,,M,,N,,K,N*2C
$GPRMC,133154.5,V,4729.22130,N,01904.75728,E,,,170424,004.1,E,N*11
$GPGGA,133154.5,4729.22130,N,01904.75728,E,0,00,,,M,,M,,*4E
$GPVTG,,T,,M,,N,,K,N*2C
$GPRMC,133154.6,V,4729.22130,N,01904.75728,E,,,170424,004.1,E,N*12
$GPGGA,133154.6,4729.22130,N,01904.75728,E,0,00,,,M,,M,,*4D
$GPVTG,,T,,M,,N,,K,N*2C
$GPRMC,133154.7,V,4729.22130,N,01904.75728,E,,,170424,004.1,E,N*13
$GPGGA,133154.7,4729.22130,N,01904.75728,E,0,00,,,M,,M,,*4C
$GPVTG,,T,,M,,N,,K,N*2C
$GPRMC,133154.8,V,4729.22130,N,01904.75728,E,,,170424,004.1,E,N*1C
$GPGGA,133154.8,4729.22130,N,01904.75728,E,0,00,,,M,,M,,*43
$GPVTG,,T,,M,,N,,K,N*2C
$GPRMC,133154.9,V,4729.22130,N,01904.75728,E,,,170424,004.1,E,N*1D
$GPGGA,133154.9,4729.22130,N,01904.75728,E,0,00,,,M,,M,,*42
$GPVTG,,T,,M,,N,,K,N*2C
$GPRMC,133155.0,V,4729.22130,N,01904.75728,E,,,170424,004.1,E,N*15
$GPGGA,133155.0,4729.22130,N,01904.75728,E,0,00,,,M,,M,,*4A
$GPVTG,,T,,M,,N,,K,N*2C
$GPGSA,A,1,,,,,,,,,,,,,,,*1E
$GPGSV,1,1,04,49,32,205,00,07,05,328,00,08,27,302,00,10,52,166,00*76
$GPRMC,133155.1,V,4729.22130,N,01904.75728,E,,,170424,004.1,E,N*14
$GPGGA,133155.1,4729.22130,N,01904.75728,E,0,00,,,M,,M,,*4B
$GPVTG,,T,,M,,N,,K,N*2C
$GPRMC,133155.2,V,4729.22130,N,01904.75728,E,,,170424,004.1,E,N*17
$GPGGA,133155.2,4729.22130,N,01904.75728,E,0,00,,,M,,M,,*48
$GPVTG,,T,,M,,N,,K,N*2C
$GPRMC,133155.3,V,4729.22130,N,01904.75728,E,,,170424,004.1,E,N*16
$GPGGA,133155.3,4729.22130,N,01904.75728,E,0,00,,,M,,M,,*49
$GPVTG,,T,,M,,N,,K,N*2C
$GPRMC,133155.4,V,4729.22130,N,01904.75728,E,,,170424,004.1,E,N*11
$GPGGA,133155.4,4729.22130,N,01904.75728,E,0,00,,,M,,M,,*4E
$GPVTG,,T,,M,,N,,K,N*2C
$GPRMC,133155.5,V,4729.22130,N,01904.75728,E,,,170424,004.1,E,N*10
$GPGGA,133155.5,4729.22130,N,01904.75728,E,0,00,,,M,,M,,*4F
$GPVTG,,T,,M,,N,,K,N*2C
$GPRMC,133155.6,V,4729.22130,N,01904.75728,E,,,170424,004.1,E,N*13
$GPGGA,133155.6,4729.22130,N,01904.75728,E,0,00,,,M,,M,,*4C
$GPVTG,,T,,M,,N,,K,N*2C
$GPRMC,133155.7,V,4729.22130,N,01904.75728,E,,,170424,004.1,E,N*12
$GPGGA,133155.7,4729.22130,N,01904.75728,E,0,00,,,M,,M,,*4D
$GPVTG,,T,,M,,N,,K,N*2C
$GPRMC,133155.8,V,4729.22130,N,01904.75728,E,,,170424,004.1,E,N*1D
$GPGGA,133155.8,4729.22130,N,01904.75728,E,0,00,,,M,,M,,*42
$GPVTG,,T,,M,,N,,K,N*2C
$GPRMC,133155.9,V,4729.22130,N,01904.75728,E,,,170424,004.1,E,N*1C
$GPGGA,133155.9,4729.22130,N,01904.75728,E,0,00,,,M,,M,,*43
$GPVTG,,T,,M,,N,,K,N*2C
$GPRMC,133156.0,V,4729.22130,N,01904.75728,E,,,170424,004.1,E,N*16
$GPGGA,133156.0,4729.22130,N,01904.75728,E,0,00,,,M,,M,,*49
$GPVTG,,T,,M,,N,,K,N*2C
$GPGSA,A,1,,,,,,,,,,,,,,,*1E
$GPGSV,1,1,04,49,32,205,00,93,24,137,00,16,49,205,47,90,63,331,25*7B
$GPRMC,133156.1,V,4729.22130,N,01904.75728,E,,,170424,004.1,E,N*17
$GPGGA,133156.1,4729.22130,N,01904.75728,E,0,00,,,M,,M,,*48
$GPVTG,,T,,M,,N,,K,N*2C
$GPRMC,133156.2,V,4729.22130,N,01904.75728,E,,,170424,004.1,E,N*14
$GPGGA,133156.2,4729.22130,N,01904.75728,E,0,00,,,M,,M,,*4B
$GPVTG,,T,,M,,N,,K,N*2C
$GPRMC,133156.3,V,4729.22130,N,01904.75728,E,,,170424,004.1,E,N*15
$GPGGA,133156.3,4729.22130,N,01904.75728,E,0,00,,,M,,M,,*4A
$GPVTG,,T,,M,,N,,K,N*2C
$GPRMC,133156.4,V,4729.22130,N,01904.75728,E,,,170424,004.1,E,N*12
$GPGGA,133156.4,4729.22130,N,01904.75728,E,0,00,,,M,,M,,*4D
$GPVTG,,T,,M,,N,,K,N*2C
$GPRMC,133156.5,V,4729.22130,N,01904.75728,E,,,170424,004.1,E,N*13
$GPGGA,133156.5,4729.22130,N,01904.75728,E,0,00,,,M,,M,,*4C
$GPVTG,,T,,M,,N,,K,N*2C
$GPRMC,133156.6,V,4729.22130,N,01904.75728,E,,,170424,004.1,E,N*10
$GPGGA,133156.6,4729.22130,N,01904.75728,E,0,00,,,M,,M,,*4F
$GPVTG,,T,,M,,N,,K,N*2C
$GPRMC,133156.7,V,4729.22130,N,01904.75728,E,,,170424,004.1,E,N*11
$GPGGA,133156.7,4729.22130,N,01904.75728,E,0,00,,,M,,M,,*4E
$GPVTG,,T,,M,,N,,K,N*2C
$GPRMC,133156.8,V,4729.22130,N,01904.75728,E,,,170424,004.1,E,N*1E
$GPGGA,133156.8,4729.22130,N,01904.75728,E,0,00,,,M,,M,,*41
$GPVTG,,T,,M,,N,,K,N*2C
$GPRMC,133156.9,V,4729.22130,N,01904.75728,E,,,170424,004.1,E,N*1F
$GPGGA,133156.9,4729.22130,N,01904.75728,E,0,00,,,M,,M,,*40
$GPVTG,,T,,M,,N,,K,N*2C
$GPRMC,133157.0,V,4729.22130,N,01904.75728,E,,,170424,004.1,E,N*17
$GPGGA,133157.0,4729.22130,N,01904.75728,E,0,00,,,M,,M,,*48
$GPVTG,,T,,M,,N,,K,N*2C
$GPGSA,A,1,,,,,,,,,,,,,,,*1E
$GPGSV,1,1,04,49,32,205,00,93,24,137,00,26,29,194,26,16,49,205,47*76
$GPRMC,133157.1,V,4729.22130,N,01904.75728,E,,,170424,004.1,E,N*16
$GPGGA,133157.1,4729.22130,N,01904.75728,E,0,00,,,M,,M,,*49
$GPVTG,,T,,M,,N,,K,N*2C
$GPRMC,133157.2,V,4729.22130,N,01904.75728,E,,,170424,004.1,E,N*15
$GPGGA,133157.2,4729.22130,N,01904.75728,E,0,00,,,M,,M,,*4A
$GPVTG,,T,,M,,N,,K,N*2C
$GPRMC,133157.3,V,4729.22130,N,01904.75728,E,,,170424,004.1,E,N*14
$GPGGA,133157.3,4729.22130,N,01904.75728,E,0,00,,,M,,M,,*4B
$GPVTG,,T,,M,,N,,K,N*2C
$GPRMC,133157.4,V,4729.22130,N,01904.75728,E,,,170424,004.1,E,N*13
$GPGGA,133157.4,4729.22130,N,01904.75728,E,0,00,,,M,,M,,*4C
$GPVTG,,T,,M,,N,,K,N*2C
$GPRMC,133157.5,V,4729.22130,N,01904.75728,E,,,170424,004.1,E,N*12
$GPGGA,133157.5,4729.22130,N,01904.75728,E,0,00,,,M,,M,,*4D
$GPVTG,,T,,M,,N,,K,N*2C
$GPRMC,133157.6,V,4729.22130,N,01904.75728,E,,,170424,004.1,E,N*11
$GPGGA,133157.6,4729.22130,N,01904.75728,E,0,00,,,M,,M,,*4E
$GPVTG,,T,,M,,N,,K,N*2C
$GPRMC,133157.7,V,4729.22130,N,01904.75728,E,,,170424,004.1,E,N*10
$GPGGA,133157.7,4729.22130,N,01904.75728,E,0,00,,,M,,M,,*4F
$GPVTG,,T,,M,,N,,K,N*2C
$GPRMC,133157.8,V,4729.22130,N,01904.75728,E,,,170424,004.1,E,N*1F
$GPGGA,133157.8,4729.22130,N,01904.75728,E,0,00,,,M,,M,,*40
$GPVTG,,T,,M,,N,,K,N*2C
$GPRMC,133157.9,V,4729.22130,N,01904.75728,E,,,170424,004.1,E,N*1E
$GPGGA,133157.9,4729.22130,N,01904.75728,E,0,00,,,M,,M,,*41
$GPVTG,,T,,M,,N,,K,N*2C
$GPRMC,133158.0,V,4729.22130,N,01904.75728,E,,,170424,004.1,E,N*18
$GPGGA,133158.0,4729.22130,N,01904.75728,E,0,00,,,M,,M,,*47
$GPVTG,,T,,M,,N,,K,N*2C
$GPGSA,A,1,,,,,,,,,,,,,,,*1E
$GPGSV,1,1,04,49,32,205,00,93,24,137,25,26,29,194,24,16,49,205,46*72
$GPRMC,133158.1,V,4729.22130,N,01904.75728,E,,,170424,004.1,E,N*19
$GPGGA,133158.1,4729.22130,N,01904.75728,E,0,00,,,M,,M,,*46
$GPVTG,,T,,M,,N,,K,N*2C
$GPRMC,133158.2,V,4729.22130,N,01904.75728,E,,,170424,004.1,E,N*1A
$GPGGA,133158.2,4729.22130,N,01904.75728,E,0,00,,,M,,M,,*45
$GPVTG,,T,,M,,N,,K,N*2C
$GPRMC,133158.3,V,4729.22130,N,01904.75728,E,,,170424,004.1,E,N*1B
$GPGGA,133158.3,4729.22130,N,01904.75728,E,0,00,,,M,,M,,*44
$GPVTG,,T,,M,,N,,K,N*2C
$GPRMC,133158.4,V,4729.22130,N,01904.75728,E,,,170424,004.1,E,N*1C
$GPGGA,133158.4,4729.22130,N,01904.75728,E,0,00,,,M,,M,,*43
$GPVTG,,T,,M,,N,,K,N*2C
$GPRMC,133158.5,V,4729.22130,N,01904.75728,E,,,170424,004.1,E,N*1D
$GPGGA,133158.5,4729.22130,N,01904.75728,E,0,00,,,M,,M,,*42
$GPVTG,,T,,M,,N,,K,N*2C
$GPRMC,133158.6,V,4729.22130,N,01904.75728,E,,,170424,004.1,E,N*1E
$GPGGA,133158.6,4729.22130,N,01904.75728,E,0,00,,,M,,M,,*41
$GPVTG,,T,,M,,N,,K,N*2C
$GPRMC,133158.7,V,4729.22130,N,01904.75728,E,,,170424,004.1,E,N*1F
$GPGGA,133158.7,4729.22130,N,01904.75728,E,0,00,,,M,,M,,*40
$GPVTG,,T,,M,,N,,K,N*2C
$GPRMC,133158.8,V,4729.22130,N,01904.75728,E,,,170424,004.1,E,N*10
$GPGGA,133158.8,4729.22130,N,01904.75728,E,0,00,,,M,,M,,*4F
$GPVTG,,T,,M,,N,,K,N*2C
$GPRMC,133158.9,V,4729.22130,N,01904.75728,E,,,170424,004.1,E,N*11
$GPGGA,133158.9,4729.22130,N,01904.75728,E,0,00,,,M,,M,,*4E
$GPVTG,,T,,M,,N,,K,N*2C
$GPRMC,133159.0,V,4729.22130,N,01904.75728,E,,,170424,004.1,E,N*19
$GPGGA,133159.0,4729.22130,N,01904.75728,E,0,00,,,M,,M,,*46
$GPVTG,,T,,M,,N,,K,N*2C
$GPGSA,A,1,,,,,,,,,,,,,,,*1E
$GPGSV,1,1,04,49,32,205,00,93,24,137,32,26,29,194,25,16,49,205,46*75
$GPRMC,133159.1,V,4729.22130,N,01904.75728,E,,,170424,004.1,E,N*18
$GPGGA,133159.1,4729.22130,N,01904.75728,E,0,00,,,M,,M,,*47
$GPVTG,,T,,M,,N,,K,N*2C
$GPRMC,133159.2,V,4729.22130,N,01904.75728,E,,,170424,004.1,E,N*1B
$GPGGA,133159.2,4729.22130,N,01904.75728,E,0,00,,,M,,M,,*44
$GPVTG,,T,,M,,N,,K,N*2C
$GPRMC,133159.3,V,4729.22130,N,01904.75728,E,,,170424,004.1,E,N*1A
$GPGGA,133159.3,4729.22130,N,01904.75728,E,0,00,,,M,,M,,*45
$GPVTG,,T,,M,,N,,K,N*2C
$GPRMC,133159.4,V,4729.22130,N,01904.75728,E,,,170424,004.1,E,N*1D
$GPGGA,133159.4,4729.22130,N,01904.75728,E,0,00,,,M,,M,,*42
$GPVTG,,T,,M,,N,,K,N*2C
$GPRMC,133159.5,V,4729.22130,N,01904.75728,E,,,170424,004.1,E,N*1C
$GPGGA,133159.5,4729.22130,N,01904.75728,E,0,00,,,M,,M,,*43
$GPVTG,,T,,M,,N,,K,N*2C
$GPRMC,133159.6,V,4729.22130,N,01904.75728,E,,,170424,004.1,E,N*1F
$GPGGA,133159.6,4729.22130,N,01904.75728,E,0,00,,,M,,M,,*40
$GPVTG,,T,,M,,N,,K,N*2C
$GPRMC,133159.7,A,4729.21062,N,01904.77736,E,000.96,256.6,170424,004.1,E,A*36
$GPGGA,133159.7,4729.21062,N,01904.77736,E,1,02,1.7,141.5,M,42.0,M,,*55
$GPVTG,256.6,T,252.4,M,000.96,N,0001.78,K,A*14
$GPRMC,133159.8,A,4729.21059,N,01904.77738,E,002.06,167.8,170424,004.1,E,A*3B
$GPGGA,133159.8,4729.21059,N,01904.77738,E,1,02,1.7,141.6,M,42.0,M,,*5F
$GPVTG,167.8,T,163.7,M,002.06,N,0003.81,K,A*16
$GPRMC,133159.9,A,4729.21054,N,01904.77739,E,001.69,174.9,170424,004.1,E,A*3F
$GPGGA,133159.9,4729.21054,N,01904.77739,E,1,02,1.7,,M,42.0,M,,*7E
$GPVTG,174.9,T,170.7,M,001.69,N,0003.14,K,A*11
$GPRMC,133200.0,A,4729.21049,N,01904.77740,E,001.70,175.8,170424,004.1,E,A*33
$GPGGA,133200.0,4729.21049,N,01904.77740,E,1,02,1.7,,M,42.0,M,,*7A
$GPVTG,175.8,T,171.7,M,001.70,N,0003.15,K,A*19
$GPGSA,A,2,26,16,,,,,,,,,,,3.5,1.7,*1E
$GPGSV,2,1,06,49,32,205,00,93,24,137,32,26,28,194,24,16,55,226,46*78
$GPGSV,2,2,06,90,63,331,24,80,30,315,31*7A
$GPRMC,133200.1,A,4729.21044,N,01904.77740,E,001.94,182.0,170424,004.1,E,A*35
$GPGGA,133200.1,4729.21044,N,01904.77740,E,1,02,1.7,,M,42.0,M,,*76
$GPVTG,182.0,T,177.9,M,001.94,N,0003.59,K,A*13
$PGRMT,GLO Software Version 2.80,,,,,,,,*75
$GPRMC,133200.2,A,4729.20974,N,01904.77455,E,001.98,182.7,170424,004.1,E,A*31
$GPGGA,133200.2,4729.20974,N,01904.77455,E,1,02,1.7,,M,42.0,M,,*79
$GPVTG,182.7,T,178.5,M,001.98,N,0003.67,K,A*16
$GPRMC,133200.3,A,4729.20969,N,01904.77455,E,001.37,181.0,170424,004.1,E,A*3D
$GPGGA,133200.3,4729.20969,N,01904.77455,E,1,02,1.7,,M,42.0,M,,*74
$GPVTG,181.0,T,176.8,M,001.37,N,0002.54,K,A*15
$GPRMC,133200.4,A,4729.20965,N,01904.77455,E,001.34,180.3,170424,004.1,E,A*37
$GPGGA,133200.4,4729.20965,N,01904.77455,E,1,02,1.7,141.6,M,42.0,M,,*53
$GPVTG,180.3,T,176.2,M,001.34,N,0002.48,K,A*13
$GPRMC,133200.5,A,4729.20961,N,01904.77454,E,001.46,199.4,170424,004.1,E,A*39
$GPGGA,133200.5,4729.20961,N,01904.77454,E,1,02,1.7,141.6,M,42.0,M,,*57
$GPVTG,199.4,T,195.2,M,001.46,N,0002.71,K,A*1E
$GPRMC,133200.6,A,4729.20958,N,01904.77452,E,001.50,200.7,170424,004.1,E,A*31
$GPGGA,133200.6,4729.20958,N,01904.77452,E,1,02,1.7,,M,42.0,M,,*74
$GPVTG,200.7,T,196.6,M,001.50,N,0002.77,K,A*18
$GPRMC,133200.7,A,4729.20954,N,01904.77450,E,001.49,198.2,170424,004.1,E,A*31
$GPGGA,133200.7,4729.20954,N,01904.77450,E,1,02,1.7,,M,42.0,M,,*7B
$GPVTG,198.2,T,194.1,M,001.49,N,0002.76,K,A*13
$GPRMC,133200.8,A,4729.20950,N,01904.77448,E,001.49,198.1,170424,004.1,E,A*30
$GPGGA,133200.8,4729.20950,N,01904.77448,E,1,02,1.7,,M,42.0,M,,*79
$GPVTG,198.1,T,193.9,M,001.49,N,0002.76,K,A*1F
$GPRMC,133200.9,A,4729.20946,N,01904.77446,E,001.29,191.9,170424,004.1,E,A*3F
$GPGGA,133200.9,4729.20946,N,01904.77446,E,1,02,1.7,141.6,M,42.0,M,,*5D
$GPVTG,191.9,T,187.8,M,001.29,N,0002.39,K,A*17
$GPRMC,133201.0,A,4729.20943,N,01904.77445,E,001.28,191.6,170424,004.1,E,A*3F
$GPGGA,133201.0,4729.20943,N,01904.77445,E,1,02,1.7,141.6,M,42.0,M,,*53
$GPVTG,191.6,T,187.5,M,001.28,N,0002.37,K,A*1A
$GPGSA,A,3,26,16,,,,,,,,,,,3.5,1.7,3.0*32
$GPGSV,2,1,06,49,32,205,00,93,24,137,32,26,28,194,24,16,55,226,46*78
$GPGSV,2,2,06,90,63,331,34,80,30,315,31*7B
$GPRMC,133201.1,A,4729.20939,N,01904.77444,E,001.44,199.6,170424,004.1,E,A*30
$GPGGA,133201.1,4729.20939,N,01904.77444,E,1,02,1.7,141.6,M,42.0,M,,*5E
$GPVTG,199.6,T,195.4,M,001.44,N,0002.66,K,A*1E
$GPRMC,133201.2,A,4729.21026,N,01904.77329,E,001.44,199.5,170424,004.1,E,A*3A
$GPGGA,133201.2,4729.21026,N,01904.77329,E,1,02,1.7,,M,42.0,M,,*7B
$GPVTG,199.5,T,195.4,M,001.44,N,0002.67,K,A*1C
$GPRMC,133201.3,A,4729.21022,N,01904.77327,E,001.55,197.0,170424,004.1,E,A*3A
$GPGGA,133201.3,4729.21022,N,01904.77327,E,1,02,1.7,,M,42.0,M,,*70
$GPVTG,197.0,T,192.8,M,001.55,N,0002.86,K,A*13
$GPRMC,133201.4,A,4729.21018,N,01904.77325,E,001.55,196.8,170424,004.1,E,A*3F
$GPGGA,133201.4,4729.21018,N,01904.77325,E,1,02,1.7,,M,42.0,M,,*7C
$GPVTG,196.8,T,192.6,M,001.55,N,0002.87,K,A*15
$GPRMC,133201.5,A,4729.21014,N,01904.77323,E,001.67,195.9,170424,004.1,E,A*37
$GPGGA,133201.5,4729.21014,N,01904.77323,E,1,02,1.7,,M,42.0,M,,*77
$GPVTG,195.9,T,191.7,M,001.67,N,0003.09,K,A*13
$GPRMC,133201.6,A,4729.21009,N,01904.77321,E,001.67,195.7,170424,004.1,E,A*34
$GPGGA,133201.6,4729.21009,N,01904.77321,E,1,02,1.7,,M,42.0,M,,*7A
$GPVTG,195.7,T,191.6,M,001.67,N,0003.09,K,A*1C
$GPRMC,133201.7,A,4729.21005,N,01904.77319,E,001.33,199.1,170424,004.1,E,A*39
$GPGGA,133201.7,4729.21005,N,01904.77319,E,1,02,1.7,,M,42.0,M,,*7C
$GPVTG,199.1,T,195.0,M,001.33,N,0002.47,K,A*1E
$GPRMC,133201.8,A,4729.21002,N,01904.77318,E,001.32,199.0,170424,004.1,E,A*30
$GPGGA,133201.8,4729.21002,N,01904.77318,E,1,02,1.7,,M,42.0,M,,*75
$GPVTG,199.0,T,194.9,M,001.32,N,0002.45,K,A*14
$GPRMC,133201.9,A,4729.20998,N,01904.77316,E,001.57,200.5,170424,004.1,E,A*31
$GPGGA,133201.9,4729.20998,N,01904.77316,E,1,02,1.7,,M,42.0,M,,*71
$GPVTG,200.5,T,196.4,M,001.57,N,0002.92,K,A*14
$GPRMC,133202.0,A,4729.20994,N,01904.77313,E,001.58,200.4,170424,004.1,E,A*3C
$GPGGA,133202.0,4729.20994,N,01904.77313,E,1,02,1.7,,M,42.0,M,,*72
$GPVTG,200.4,T,196.3,M,001.58,N,0002.93,K,A*1C
$GPGSA,A,2,26,16,,,,,,,,,,,3.5,1.7,*1E
$GPGSV,2,1,06,49,32,205,00,93,24,137,31,26,28,194,24,16,55,226,46*7B
$GPGSV,2,2,06,90,63,331,38,80,30,315,29*7E
$GPRMC,133202.1,A,4729.20990,N,01904.77311,E,001.58,194.3,170424,004.1,E,A*32
$GPGGA,133202.1,4729.20990,N,01904.77311,E,1,02,1.7,,M,42.0,M,,*75
$GPVTG,194.3,T,190.1,M,001.58,N,0002.92,K,A*10
$GPRMC,133202.2,A,4729.21028,N,01904.77277,E,001.58,194.0,170424,004.1,E,A*38
$GPGGA,133202.2,4729.21028,N,01904.77277,E,1,02,1.7,,M,42.0,M,,*7C
$GPVTG,194.0,T,189.8,M,001.58,N,0002.92,K,A*12
$GPRMC,133202.3,A,4729.21024,N,01904.77275,E,001.28,202.8,170424,004.1,E,A*34
$GPGGA,133202.3,4729.21024,N,01904.77275,E,1,02,1.7,,M,42.0,M,,*73
$GPVTG,202.8,T,198.6,M,001.28,N,0002.36,K,A*11
$GPRMC,133202.4,A,4729.21020,N,01904.77273,E,001.26,202.8,170424,004.1,E,A*3F
$GPGGA,133202.4,4729.21020,N,01904.77273,E,1,02,1.7,,M,42.0,M,,*76
$GPVTG,202.8,T,198.7,M,001.26,N,0002.34,K,A*1C
$GPRMC,133202.5,A,4729.21017,N,01904.77270,E,001.79,208.0,170424,004.1,E,A*31
$GPGGA,133202.5,4729.21017,N,01904.77270,E,1,02,1.7,,M,42.0,M,,*70
$GPVTG,208.0,T,203.8,M,001.79,N,0003.31,K,A*1E
$GPRMC,133202.6,A,4729.21012,N,01904.77267,E,001.80,207.9,170424,004.1,E,A*31
$GPGGA,133202.6,4729.21012,N,01904.77267,E,1,02,1.7,,M,42.0,M,,*70
$GPVTG,207.9,T,203.8,M,001.80,N,0003.34,K,A*1B
$GPRMC,133202.7,A,4729.21008,N,01904.77263,E,001.60,220.8,170424,004.1,E,A*35
$GPGGA,133202.7,4729.21008,N,01904.77263,E,1,02,1.7,,M,42.0,M,,*7E
$GPVTG,220.8,T,216.7,M,001.60,N,0002.96,K,A*13
$GPRMC,133202.8,A,4729.21005,N,01904.77259,E,001.59,221.0,170424,004.1,E,A*3D
$GPGGA,133202.8,4729.21005,N,01904.77259,E,1,02,1.7,,M,42.0,M,,*75
$GPVTG,221.0,T,216.9,M,001.59,N,0002.95,K,A*1D
$GPRMC,133202.9,A,4729.21002,N,01904.77255,E,001.29,232.5,170424,004.1,E,A*37
$GPGGA,133202.9,4729.21002,N,01904.77255,E,1,02,1.7,,M,42.0,M,,*7F
$GPVTG,232.5,T,228.3,M,001.29,N,0002.38,K,A*1D
$GPRMC,133203.0,A,4729.21000,N,01904.77250,E,001.28,232.8,170424,004.1,E,A*34
$GPGGA,133203.0,4729.21000,N,01904.77250,E,1,02,1.7,,M,42.0,M,,*70
$GPVTG,232.8,T,228.6,M,001.28,N,0002.36,K,A*1A
$GPGSA,A,2,26,16,,,,,,,,,,,3.5,1.7,*1E
$GPGSV,2,1,06,49,32,205,00,93,24,137,40,84,40,063,30,26,28,194,25*71
$GPGSV,2,2,06,16,55,226,46,90,63,331,42*77
$GPRMC,133203.1,A,4729.20998,N,01904.77247,E,000.76,232.8,170424,004.1,E,A*30
$GPGGA,133203.1,4729.20998,N,01904.77247,E,1,02,1.7,,M,42.0,M,,*7E
$GPVTG,232.8,T,228.6,M,000.76,N,0001.40,K,A*12
$GPRMC,133203.2,A,4729.21010,N,01904.77236,E,000.74,232.8,170424,004.1,E,A*3F
$GPGGA,133203.2,4729.21010,N,01904.77236,E,1,02,1.7,,M,42.0,M,,*73
$GPVTG,232.8,T,228.6,M,000.74,N,0001.38,K,A*1F
$GPRMC,133203.3,A,4729.21008,N,01904.77234,E,000.50,232.8,170424,004.1,E,A*33
$GPGGA,133203.3,4729.21008,N,01904.77234,E,1,02,1.7,,M,42.0,M,,*79
$GPVTG,232.8,T,228.6,M,000.50,N,0000.92,K,A*18
$GPRMC,133203.4,A,4729.21007,N,01904.77233,E,000.49,232.8,170424,004.1,E,A*34
$GPGGA,133203.4,4729.21007,N,01904.77233,E,1,02,1.7,,M,42.0,M,,*76
$GPVTG,232.8,T,228.6,M,000.49,N,0000.91,K,A*13
$GPRMC,133203.5,A,4729.21006,N,01904.77233,E,000.68,232.8,170424,004.1,E,A*37
$GPGGA,133203.5,4729.21006,N,01904.77233,E,1,02,1.7,141.6,M,42.0,M,,*5A
$GPVTG,232.8,T,228.6,M,000.68,N,0001.25,K,A*1E
$GPRMC,133203.6,A,4729.21004,N,01904.77235,E,000.69,232.8,170424,004.1,E,A*31
$GPGGA,133203.6,4729.21004,N,01904.77235,E,1,02,1.7,141.6,M,42.0,M,,*5D
$GPVTG,232.8,T,228.6,M,000.69,N,0001.28,K,A*12
$GPRMC,133203.7,A,4729.21002,N,01904.77236,E,000.65,232.8,170424,004.1,E,A*39
$GPGGA,133203.7,4729.21002,N,01904.77236,E,1,02,1.7,141.6,M,42.0,M,,*59
$GPVTG,232.8,T,228.6,M,000.65,N,0001.21,K,A*17
$GPRMC,133203.8,A,4729.21001,N,01904.77238,E,000.66,232.8,170424,004.1,E,A*38
$GPGGA,133203.8,4729.21001,N,01904.77238,E,1,02,1.7,141.6,M,42.0,M,,*5B
$GPVTG,232.8,T,228.6,M,000.66,N,0001.22,K,A*17
$GPRMC,133203.9,A,4729.20999,N,01904.77240,E,000.95,232.8,170424,004.1,E,A*33
$GPGGA,133203.9,4729.20999,N,01904.77240,E,1,02,1.7,141.6,M,42.0,M,,*5C
$GPVTG,232.8,T,228.6,M,000.95,N,0001.75,K,A*19
$GPRMC,133204.0,A,4729.20997,N,01904.77241,E,000.96,232.8,170424,004.1,E,A*31
$GPGGA,133204.0,4729.20997,N,01904.77241,E,1,02,1.7,141.6,M,42.0,M,,*5D
$GPVTG,232.8,T,228.6,M,000.96,N,0001.77,K,A*18
$GPGSA,A,3,26,16,,,,,,,,,,,3.5,1.7,3.0*32
$GPGSV,2,1,06,49,32,205,00,89,18,280,29,93,24,137,36,84,40,063,40*7B
$GPGSV,2,2,06,26,28,194,28,16,55,226,46*74
$GPRMC,133204.1,A,4729.20993,N,01904.77242,E,001.42,167.4,170424,004.1,E,A*30
$GPGGA,133204.1,4729.20993,N,01904.77242,E,1,02,1.7,141.6,M,42.0,M,,*5B
$GPVTG,167.4,T,163.3,M,001.42,N,0002.63,K,A*10
$GPRMC,133204.2,A,4729.21187,N,01904.77342,E,001.43,167.3,170424,004.1,E,A*38
$GPGGA,133204.2,4729.21187,N,01904.77342,E,1,02,1.7,119.4,M,42.0,M,,*5A
$GPVTG,167.3,T,163.2,M,001.43,N,0002.65,K,A*11
$GPRMC,133204.3,A,4729.21184,N,01904.77343,E,001.06,183.2,170424,004.1,E,A*31
$GPGGA,133204.3,4729.21184,N,01904.77343,E,1,02,1.7,119.4,M,42.0,M,,*59
$GPVTG,183.2,T,179.1,M,001.06,N,0001.96,K,A*1C
$GPRMC,133204.4,A,4729.21181,N,01904.77343,E,001.07,184.1,170424,004.1,E,A*36
$GPGGA,133204.4,4729.21181,N,01904.77343,E,1,02,1.7,,M,42.0,M,,*78
$GPVTG,184.1,T,180.0,M,001.07,N,0001.98,K,A*10
$GPRMC,133204.5,A,4729.21179,N,01904.77342,E,000.29,184.1,170424,004.1,E,A*3C
$GPGGA,133204.5,4729.21179,N,01904.77342,E,1,02,1.7,119.4,M,42.0,M,,*5C
$GPVTG,184.1,T,180.0,M,000.29,N,0000.54,K,A*1C
$GPRMC,133204.6,A,4729.21179,N,01904.77341,E,000.29,184.1,170424,004.1,E,A*3C
$GPGGA,133204.6,4729.21179,N,01904.77341,E,1,02,1.7,119.4,M,42.0,M,,*5C
$GPVTG,184.1,T,180.0,M,000.29,N,0000.54,K,A*1C
$GPRMC,133204.7,A,4729.21179,N,01904.77339,E,000.51,184.1,170424,004.1,E,A*3D
$GPGGA,133204.7,4729.21179,N,01904.77339,E,1,02,1.7,119.4,M,42.0,M,,*52
$GPVTG,184.1,T,180.0,M,000.51,N,0000.95,K,A*1E
$GPRMC,133204.8,A,4729.21178,N,01904.77337,E,000.52,184.1,170424,004.1,E,A*3E
$GPGGA,133204.8,4729.21178,N,01904.77337,E,1,02,1.7,119.4,M,42.0,M,,*52
$GPVTG,184.1,T,180.0,M,000.52,N,0000.96,K,A*1E
$GPRMC,133204.9,A,4729.21176,N,01904.77335,E,001.11,223.2,170424,004.1,E,A*38
$GPGGA,133204.9,4729.21176,N,01904.77335,E,1,02,1.7,119.4,M,42.0,M,,*5F
$GPVTG,223.2,T,219.1,M,001.11,N,0002.06,K,A*1C
$GPRMC,133205.0,A,4729.21174,N,01904.77332,E,001.13,222.8,170424,004.1,E,A*3C
$GPGGA,133205.0,4729.21174,N,01904.77332,E,1,02,1.7,119.4,M,42.0,M,,*52
$GPVTG,222.8,T,218.6,M,001.13,N,0002.09,K,A*1C
$GPGSA,A,3,26,16,,,,,,,,,,,3.5,1.7,3.0*32
$GPGSV,2,1,06,49,32,205,37,89,18,280,28,93,24,137,36,84,40,063,41*7F
$GPGSV,2,2,06,26,28,194,31,16,55,226,44*7E
$GPRMC,133205.1,A,4729.21172,N,01904.77328,E,001.18,230.8,170424,004.1,E,A*38
$GPGGA,133205.1,4729.21172,N,01904.77328,E,1,02,1.7,119.4,M,42.0,M,,*5E
$GPVTG,230.8,T,226.7,M,001.18,N,0002.18,K,A*18
$GPRMC,133205.2,A,4729.21216,N,01904.77308,E,001.18,230.9,170424,004.1,E,A*39
$GPGGA,133205.2,4729.21216,N,01904.77308,E,1,02,1.7,118.1,M,42.0,M,,*5A
$GPVTG,230.9,T,226.7,M,001.18,N,0002.18,K,A*19
$GPRMC,133205.3,A,4729.21214,N,01904.77305,E,001.12,220.3,170424,004.1,E,A*36
$GPGGA,133205.3,4729.21214,N,01904.77305,E,1,02,1.7,118.1,M,42.0,M,,*54
$GPVTG,220.3,T,216.2,M,001.12,N,0002.08,K,A*1F
$GPRMC,133205.4,A,4729.21212,N,01904.77302,E,001.12,220.0,170424,004.1,E,A*33
$GPGGA,133205.4,4729.21212,N,01904.77302,E,1,02,1.7,118.1,M,42.0,M,,*52
$GPVTG,220.0,T,215.8,M,001.12,N,0002.07,K,A*1A
$GPRMC,133205.5,A,4729.21209,N,01904.77300,E,001.20,191.5,170424,004.1,E,A*37
$GPGGA,133205.5,4729.21209,N,01904.77300,E,1,02,1.7,118.1,M,42.0,M,,*5B
$GPVTG,191.5,T,187.4,M,001.20,N,0002.23,K,A*15
$GPRMC,133205.6,A,4729.21205,N,01904.77299,E,001.21,190.8,170424,004.1,E,A*34
$GPGGA,133205.6,4729.21205,N,01904.77299,E,1,02,1.7,118.1,M,42.0,M,,*55
$GPVTG,190.8,T,186.7,M,001.21,N,0002.25,K,A*1C
$GPRMC,133205.7,A,4729.21204,N,01904.77297,E,000.55,190.8,170424,004.1,E,A*38
$GPGGA,133205.7,4729.21204,N,01904.77297,E,1,02,1.7,118.1,M,42.0,M,,*5B
$GPVTG,190.8,T,186.7,M,000.55,N,0001.03,K,A*19
$GPRMC,133205.8,A,4729.21203,N,01904.77295,E,000.55,190.8,170424,004.1,E,A*32
$GPGGA,133205.8,4729.21203,N,01904.77295,E,1,02,1.7,118.1,M,42.0,M,,*51
$GPVTG,190.8,T,186.7,M,000.55,N,0001.01,K,A*1B
$GPRMC,133205.9,A,4729.21203,N,01904.77293,E,000.60,190.8,170424,004.1,E,A*33
$GPGGA,133205.9,4729.21203,N,01904.77293,E,1,02,1.7,118.1,M,42.0,M,,*56
$GPVTG,190.8,T,186.7,M,000.60,N,0001.12,K,A*1F
$GPRMC,133206.0,A,4729.21203,N,01904.77291,E,000.60,190.8,170424,004.1,E,A*3B
$GPGGA,133206.0,4729.21203,N,01904.77291,E,1,02,1.7,118.1,M,42.0,M,,*5E
$GPVTG,190.8,T,186.7,M,000.60,N,0001.12,K,A*1F
$GPGSA,A,3,26,16,,,,,,,,,,,3.5,1.7,3.0*32
$GPGSV,2,1,06,49,32,205,37,93,24,137,37,84,40,063,42,26,28,194,33*77
$GPGSV,2,2,06,16,55,226,45,90,63,331,42*74
$GPRMC,133206.1,A,4729.21203,N,01904.77288,E,000.53,190.8,170424,004.1,E,A*32
$GPGGA,133206.1,4729.21203,N,01904.77288,E,1,02,1.7,118.1,M,42.0,M,,*57
$GPVTG,190.8,T,186.7,M,000.53,N,0000.99,K,A*1D
$GPRMC,133206.2,A,4729.21238,N,01904.77305,E,000.53,190.8,170424,004.1,E,A*3D
$GPGGA,133206.2,4729.21238,N,01904.77305,E,1,02,1.7,123.2,M,42.0,M,,*53
$GPVTG,190.8,T,186.7,M,000.53,N,0000.98,K,A*1C
$GPRMC,133206.3,A,4729.21239,N,01904.77302,E,001.01,190.8,170424,004.1,E,A*3C
$GPGGA,133206.3,4729.21239,N,01904.77302,E,1,02,1.7,123.2,M,42.0,M,,*54
$GPVTG,190.8,T,186.7,M,001.01,N,0001.87,K,A*15
$GPRMC,133206.4,A,4729.21240,N,01904.77298,E,001.03,190.8,170424,004.1,E,A*35
$GPGGA,133206.4,4729.21240,N,01904.77298,E,1,02,1.7,123.2,M,42.0,M,,*5F
$GPVTG,190.8,T,186.7,M,001.03,N,0001.91,K,A*10
$GPRMC,133206.5,A,4729.21241,N,01904.77295,E,000.60,190.8,170424,004.1,E,A*3C
$GPGGA,133206.5,4729.21241,N,01904.77295,E,1,02,1.7,123.2,M,42.0,M,,*52
$GPVTG,190.8,T,186.7,M,000.60,N,0001.10,K,A*1D
$GPRMC,133206.6,A,4729.21241,N,01904.77293,E,000.55,190.8,170424,004.1,E,A*3F
$GPGGA,133206.6,4729.21241,N,01904.77293,E,1,02,1.7,123.2,M,42.0,M,,*57
$GPVTG,190.8,T,186.7,M,000.55,N,0001.02,K,A*18
$GPRMC,133206.7,A,4729.21241,N,01904.77291,E,000.68,190.8,170424,004.1,E,A*32
$GPGGA,133206.7,4729.21241,N,01904.77291,E,1,02,1.7,123.2,M,42.0,M,,*54
$GPVTG,190.8,T,186.7,M,000.68,N,0001.26,K,A*10
$GPRMC,133206.8,A,4729.21239,N,01904.77288,E,000.69,190.8,170424,004.1,E,A*3B
$GPGGA,133206.8,4729.21239,N,01904.77288,E,1,02,1.7,123.2,M,42.0,M,,*5C
$GPVTG,190.8,T,186.7,M,000.69,N,0001.28,K,A*1F
$GPRMC,133206.9,A,4729.21239,N,01904.77287,E,000.25,190.8,170424,004.1,E,A*3D
$GPGGA,133206.9,4729.21239,N,01904.77287,E,1,02,1.7,123.2,M,42.0,M,,*52
$GPVTG,190.8,T,186.7,M,000.25,N,0000.46,K,A*1E
$GPRMC,133207.0,A,4729.21238,N,01904.77286,E,000.17,190.8,170424,004.1,E,A*34
$GPGGA,133207.0,4729.21238,N,01904.77286,E,1,02,1.7,123.1,M,42.0,M,,*59
$GPVTG,190.8,T,186.7,M,000.17,N,0000.32,K,A*1C
$GPGSA,A,3,26,16,,,,,,,,,,,3.5,1.7,3.0*32
$GPGSV,2,1,06,49,32,205,40,89,18,280,30,93,24,137,36,84,40,063,41*76
$GPGSV,2,2,06,26,28,194,35,16,55,226,43*7D
$GPRMC,133207.1,A,4729.21238,N,01904.77286,E,000.17,190.8,170424,004.1,E,A*35
$GPGGA,133207.1,4729.21238,N,01904.77286,E,1,02,1.7,123.1,M,42.0,M,,*58
$GPVTG,190.8,T,186.7,M,000.17,N,0000.32,K,A*1C
$GPRMC,133207.2,A,4729.21268,N,01904.77277,E,000.19,190.8,170424,004.1,E,A*33
$GPGGA,133207.2,4729.21268,N,01904.77277,E,1,02,1.7,120.5,M,42.0,M,,*57
$GPVTG,190.8,T,186.7,M,000.19,N,0000.36,K,A*16
$GPRMC,133207.3,A,4729.21268,N,01904.77278,E,000.18,190.8,170424,004.1,E,A*3C
$GPGGA,133207.3,4729.21268,N,01904.77278,E,1,02,1.7,120.5,M,42.0,M,,*59
$GPVTG,190.8,T,186.7,M,000.18,N,0000.34,K,A*15
$GPRMC,133207.4,A,4729.21269,N,01904.77278,E,000.42,190.8,170424,004.1,E,A*35
$GPGGA,133207.4,4729.21269,N,01904.77278,E,1,02,1.7,120.5,M,42.0,M,,*5F
$GPVTG,190.8,T,186.7,M,000.42,N,0000.78,K,A*12
$GPRMC,133207.5,A,4729.21270,N,01904.77278,E,000.23,190.8,170424,004.1,E,A*3B
$GPGGA,133207.5,4729.21270,N,01904.77278,E,1,02,1.7,120.4,M,42.0,M,,*57
$GPVTG,190.8,T,186.7,M,000.23,N,0000.42,K,A*1C
$GPRMC,133207.6,A,4729.21271,N,01904.77278,E,000.18,190.8,170424,004.1,E,A*31
$GPGGA,133207.6,4729.21271,N,01904.77278,E,1,02,1.7,120.4,M,42.0,M,,*55
$GPVTG,190.8,T,186.7,M,000.18,N,0000.33,K,A*12
$GPRMC,133207.7,A,4729.21271,N,01904.77278,E,000.22,190.8,170424,004.1,E,A*39
$GPGGA,133207.7,4729.21271,N,01904.77278,E,1,02,1.7,120.4,M,42.0,M,,*54
$GPVTG,190.8,T,186.7,M,000.22,N,0000.41,K,A*1E
$GPRMC,133207.8,A,4729.21271,N,01904.77277,E,000.27,190.8,170424,004.1,E,A*3C
$GPGGA,133207.8,4729.21271,N,01904.77277,E,1,02,1.7,120.4,M,42.0,M,,*54
$GPVTG,190.8,T,186.7,M,000.27,N,0000.51,K,A*1A
$GPRMC,133207.9,A,4729.21270,N,01904.77276,E,000.23,190.8,170424,004.1,E,A*39
$GPGGA,133207.9,4729.21270,N,01904.77276,E,1,02,1.7,120.4,M,42.0,M,,*55
$GPVTG,190.8,T,186.7,M,000.23,N,0000.43,K,A*1D
$GPRMC,133208.0,A,4729.21270,N,01904.77275,E,000.24,190.8,170424,004.1,E,A*3B
$GPGGA,133208.0,4729.21270,N,01904.77275,E,1,02,1.7,120.4,M,42.0,M,,*50
$GPVTG,190.8,T,186.7,M,000.24,N,0000.44,K,A*1D
$GPGSA,A,3,26,16,,,,,,,,,,,3.5,1.7,3.0*32
$GPGSV,2,1,06,49,32,205,37,89,18,280,30,93,24,137,37,84,40,063,41*77
$GPGSV,2,2,06,26,28,194,25,16,55,226,37*7F
$GPRMC,133208.1,A,4729.21269,N,01904.77274,E,000.25,190.8,170424,004.1,E,A*32
$GPGGA,133208.1,4729.21269,N,01904.77274,E,1,02,1.7,120.4,M,42.0,M,,*58
$GPVTG,190.8,T,186.7,M,000.25,N,0000.46,K,A*1E
$GPRMC,133208.2,A,4729.21288,N,01904.77302,E,000.24,190.8,170424,004.1,E,A*3F
$GPGGA,133208.2,4729.21288,N,01904.77302,E,1,02,1.7,118.4,M,42.0,M,,*5F
$GPVTG,190.8,T,186.7,M,000.24,N,0000.45,K,A*1C
$GPRMC,133208.3,A,4729.21288,N,01904.77302,E,000.19,190.8,170424,004.1,E,A*30
$GPGGA,133208.3,4729.21288,N,01904.77302,E,1,02,1.7,118.4,M,42.0,M,,*5E
$GPVTG,190.8,T,186.7,M,000.19,N,0000.35,K,A*15
$GPRMC,133208.4,A,4729.21288,N,01904.77301,E,000.18,190.8,170424,004.1,E,A*35
$GPGGA,133208.4,4729.21288,N,01904.77301,E,1,02,1.7,118.4,M,42.0,M,,*5A
$GPVTG,190.8,T,186.7,M,000.18,N,0000.33,K,A*12
$GPRMC,133208.5,A,4729.21288,N,01904.77300,E,000.13,190.8,170424,004.1,E,A*3E
$GPGGA,133208.5,4729.21288,N,01904.77300,E,1,02,1.7,118.4,M,42.0,M,,*5A
$GPVTG,190.8,T,186.7,M,000.13,N,0000.23,K,A*18
$GPRMC,133208.6,A,4729.21287,N,01904.77300,E,000.12,190.8,170424,004.1,E,A*33
$GPGGA,133208.6,4729.21287,N,01904.77300,E,1,02,1.7,118.3,M,42.0,M,,*51
$GPVTG,190.8,T,186.7,M,000.12,N,0000.21,K,A*1B
$GPRMC,133208.7,A,4729.21287,N,01904.77299,E,000.17,190.8,170424,004.1,E,A*36
$GPGGA,133208.7,4729.21287,N,01904.77299,E,1,02,1.7,118.3,M,42.0,M,,*51
$GPVTG,190.8,T,186.7,M,000.17,N,0000.32,K,A*1C
$GPRMC,133208.8,A,4729.21287,N,01904.77299,E,000.17,190.8,170424,004.1,E,A*39
$GPGGA,133208.8,4729.21287,N,01904.77299,E,1,02,1.7,118.3,M,42.0,M,,*5E
$GPVTG,190.8,T,186.7,M,000.17,N,0000.32,K,A*1C
$GPRMC,133208.9,A,4729.21287,N,01904.77298,E,000.33,190.8,170424,004.1,E,A*3F
$GPGGA,133208.9,4729.21287,N,01904.77298,E,1,02,1.7,118.3,M,42.0,M,,*5E
$GPVTG,190.8,T,186.7,M,000.33,N,0000.61,K,A*1C
$GPRMC,133209.0,A,4729.21287,N,01904.77296,E,000.33,190.8,170424,004.1,E,A*39
$GPGGA,133209.0,4729.21287,N,01904.77296,E,1,02,1.7,118.3,M,42.0,M,,*58
$GPVTG,190.8,T,186.7,M,000.33,N,0000.61,K,A*1C
$GPGSA,A,3,26,16,,,,,,,,,,,3.5,1.7,3.0*32
$GPGSV,2,1,06,49,32,205,39,93,24,137,38,84,40,063,42,26,28,194,25*71
$GPGSV,2,2,06,16,55,226,37,90,63,331,42*71
$GPRMC,133209.1,A,4729.21287,N,01904.77295,E,000.11,190.8,170424,004.1,E,A*3B
$GPGGA,133209.1,4729.21287,N,01904.77295,E,1,02,1.7,118.3,M,42.0,M,,*5A
$GPVTG,190.8,T,186.7,M,000.11,N,0000.20,K,A*19
$GPRMC,133209.2,A,4729.21295,N,01904.77287,E,000.11,190.8,170424,004.1,E,A*38
$GPGGA,133209.2,4729.21295,N,01904.77287,E,1,02,1.7,118.8,M,42.0,M,,*52
$GPVTG,190.8,T,186.7,M,000.11,N,0000.21,K,A*18
$GPRMC,133209.3,A,4729.21295,N,01904.77287,E,000.13,190.8,170424,004.1,E,A*3B
$GPGGA,133209.3,4729.21295,N,01904.77287,E,1,02,1.7,118.8,M,42.0,M,,*53
$GPVTG,190.8,T,186.7,M,000.13,N,0000.23,K,A*18
$GPRMC,133209.4,A,4729.21294,N,01904.77287,E,000.14,190.8,170424,004.1,E,A*3A
$GPGGA,133209.4,4729.21294,N,01904.77287,E,1,02,1.7,118.8,M,42.0,M,,*55
$GPVTG,190.8,T,186.7,M,000.14,N,0000.25,K,A*19
$GPRMC,133209.5,A,4729.21294,N,01904.77287,E,000.03,190.8,170424,004.1,E,A*3D
$GPGGA,133209.5,4729.21294,N,01904.77287,E,1,02,1.7,118.8,M,42.0,M,,*54
$GPVTG,190.8,T,186.7,M,000.03,N,0000.05,K,A*1D
$GPRMC,133209.6,A,4729.21294,N,01904.77287,E,000.04,190.8,170424,004.1,E,A*39
$GPGGA,133209.6,4729.21294,N,01904.77287,E,1,02,1.7,118.8,M,42.0,M,,*57
$GPVTG,190.8,T,186.7,M,000.04,N,0000.08,K,A*17
$GPRMC,133209.7,A,4729.21294,N,01904.77287,E,000.05,190.8,170424,004.1,E,A*39
$GPGGA,133209.7,4729.21294,N,01904.77287,E,1,02,1.7,118.8,M,42.0,M,,*56
$GPVTG,190.8,T,186.7,M,000.05,N,0000.09,K,A*17
$GPRMC,133209.8,A,4729.21294,N,01904.77288,E,000.05,190.8,170424,004.1,E,A*39
$GPGGA,133209.8,4729.21294,N,01904.77288,E,1,02,1.7,118.8,M,42.0,M,,*56
$GPVTG,190.8,T,186.7,M,000.05,N,0000.10,K,A*1F
$GPRMC,133209.9,A,4729.21294,N,01904.77288,E,000.03,190.8,170424,004.1,E,A*3E
$GPGGA,133209.9,4729.21294,N,01904.77288,E,1,02,1.7,118.8,M,42.0,M,,*57
$GPVTG,190.8,T,186.7,M,000.03,N,0000.06,K,A*1E
$GPRMC,133210.1,A,4729.21294,N,01904.77288,E,000.07,190.8,170424,004.1,E,A*3A
$GPGGA,133210.1,4729.21294,N,01904.77288,E,1,02,1.7,118.8,M,42.0,M,,*57
$GPVTG,190.8,T,186.7,M,000.07,N,0000.14,K,A*19
$GPGSA,A,3,26,16,,,,,,,,,,,3.5,1.7,3.0*32
$GPGSV,2,1,06,49,32,205,39,93,24,137,37,84,40,063,43,26,28,194,26*7C
$GPGSV,2,2,06,16,55,226,38,90,63,331,43*7F
$GPRMC,133210.2,A,4729.21296,N,01904.77304,E,000.08,190.8,170424,004.1,E,A*31
$GPGGA,133210.2,4729.21296,N,01904.77304,E,1,02,1.7,118.1,M,42.0,M,,*5A
$GPVTG,190.8,T,186.7,M,000.08,N,0000.16,K,A*14
$GPRMC,133210.3,A,4729.21296,N,01904.77303,E,000.19,190.8,170424,004.1,E,A*37
$GPGGA,133210.3,4729.21296,N,01904.77303,E,1,02,1.7,118.1,M,42.0,M,,*5C
$GPVTG,190.8,T,186.7,M,000.19,N,0000.35,K,A*15
$GPRMC,133210.4,A,4729.21296,N,01904.77303,E,000.20,190.8,170424,004.1,E,A*3A
$GPGGA,133210.4,4729.21296,N,01904.77303,E,1,02,1.7,118.1,M,42.0,M,,*5B
$GPVTG,190.8,T,186.7,M,000.20,N,0000.37,K,A*1D
$GPRMC,133210.5,A,4729.21296,N,01904.77302,E,000.24,190.8,170424,004.1,E,A*3E
$GPGGA,133210.5,4729.21296,N,01904.77302,E,1,02,1.7,118.1,M,42.0,M,,*5B
$GPVTG,190.8,T,186.7,M,000.24,N,0000.44,K,A*1D
$GPRMC,133210.6,A,4729.21296,N,01904.77301,E,000.24,190.8,170424,004.1,E,A*3E
$GPGGA,133210.6,4729.21296,N,01904.77301,E,1,02,1.7,118.1,M,42.0,M,,*5B
$GPVTG,190.8,T,186.7,M,000.24,N,0000.44,K,A*1D
$GPRMC,133210.7,A,4729.21296,N,01904.77300,E,000.22,190.8,170424,004.1,E,A*38
$GPGGA,133210.7,4729.21296,N,01904.77300,E,1,02,1.7,118.1,M,42.0,M,,*5B
$GPVTG,190.8,T,186.7,M,000.22,N,0000.41,K,A*1E
$GPRMC,133210.8,A,4729.21297,N,01904.77299,E,000.21,190.8,170424,004.1,E,A*34
$GPGGA,133210.8,4729.21297,N,01904.77299,E,1,02,1.7,118.1,M,42.0,M,,*54
$GPVTG,190.8,T,186.7,M,000.21,N,0000.38,K,A*13
$GPRMC,133210.9,A,4729.21297,N,01904.77299,E,000.12,190.8,170424,004.1,E,A*35
$GPGGA,133210.9,4729.21297,N,01904.77299,E,1,02,1.7,118.1,M,42.0,M,,*55
$GPVTG,190.8,T,186.7,M,000.12,N,0000.23,K,A*19
$GPRMC,133211.0,A,4729.21297,N,01904.77299,E,000.10,190.8,170424,004.1,E,A*3F
$GPGGA,133211.0,4729.21297,N,01904.77299,E,1,02,1.7,118.1,M,42.0,M,,*5D
$GPVTG,190.8,T,186.7,M,000.10,N,0000.19,K,A*12
$GPGSA,A,3,26,16,,,,,,,,,,,3.5,1.7,3.0*32
$GPGSV,2,1,06,49,32,205,37,93,24,137,36,84,40,063,43,26,28,194,28*7D
$GPGSV,2,2,06,16,55,226,39,90,63,331,43*7E
$GPRMC,133211.1,A,4729.21297,N,01904.77298,E,000.03,190.8,170424,004.1,E,A*3D
$GPGGA,133211.1,4729.21297,N,01904.77298,E,1,02,1.7,118.1,M,42.0,M,,*5D
$GPVTG,190.8,T,186.7,M,000.03,N,0000.05,K,A*1D
$GPRMC,133211.2,A,4729.21292,N,01904.77287,E,000.01,190.8,170424,004.1,E,A*37
$GPGGA,133211.2,4729.21292,N,01904.77287,E,1,01,1.7,118.5,M,42.0,M,,*52
$GPVTG,190.8,T,186.7,M,000.01,N,0000.03,K,A*19
$GPRMC,133211.3,A,4729.21292,N,01904.77287,E,000.08,190.8,170424,004.1,E,A*3F
$GPGGA,133211.3,4729.21292,N,01904.77287,E,1,01,1.7,118.5,M,42.0,M,,*53
$GPVTG,190.8,T,186.7,M,000.08,N,0000.14,K,A*16
$GPRMC,133211.4,A,4729.21292,N,01904.77287,E,000.07,190.8,170424,004.1,E,A*37
$GPGGA,133211.4,4729.21292,N,01904.77287,E,1,01,1.7,118.5,M,42.0,M,,*54
$GPVTG,190.8,T,186.7,M,000.07,N,0000.12,K,A*1F
$GPRMC,133211.5,A,4729.21292,N,01904.77287,E,000.19,190.8,170424,004.1,E,A*39
$GPGGA,133211.5,4729.21292,N,01904.77287,E,1,01,1.7,118.5,M,42.0,M,,*55
